상권업종대분류코드,상권업종대분류명,상권업종중분류코드,상권업종중분류명,상권업종소분류코드,상권업종소분류명,표준산업분류코드,표준산업분류명,행정동코드,행정동명,도로명주소,lon,lat
D,소매,D21,철물/난방/건설자재소매,D21A06,철물/건설자재소매,G47511,철물 및 난방용구 소매업,3611025000,조치원읍,"세종특별자치시 조치원읍 새내로 90-1, (정리)",127.2985524,36.59991993
D,소매,D21,철물/난방/건설자재소매,D21A02,보일러/냉난방용품,G47511,철물 및 난방용구 소매업,3611037000,전의면,"세종특별자치시 전의면 왕의물로 40, (동교리)",127.2042975,36.68252626
F,생활서비스,F15,주택수리,F15A03,배관난방보일러,F42201,배관 및 냉·난방 공사업,3611036000,연서면,"세종특별자치시 연서면 당산로 322, (봉암리)",127.28099,36.56052257
Q,음식,Q04,분식,Q04A01,라면김밥분식,I56194,분식 및 김밥 전문점,3611034000,금남면,"세종특별자치시 금남면 채나무길 61-3, (국곡리)",127.2705614,36.42663689
D,소매,D11,유아용품,D11A03,유아용품판매,G47599,그외 기타 분류안된 가정용품 소매업,3611025000,조치원읍,"세종특별자치시 조치원읍 충현로 159, (침산리, 욱일2차)",127.2941772,36.60292216
Q,음식,Q05,닭/오리요리,Q05A08,후라이드/양념치킨,I56193,치킨 전문점,3611025000,조치원읍,"세종특별자치시 조치원읍 행복4길 14, (침산리)",127.2914037,36.60431158
L,부동산,L01,부동산중개,L01A01,부동산중개,L68221,부동산 자문 및 중개업,3611034000,금남면,"세종특별자치시 금남면 용포2길 70, (용포리, 두진리버빌)",127.2797133,36.46326433
D,소매,D08,사무/문구/컴퓨터,D08A01,사무/문구용품,G47612,문구용품 소매업,3611031000,연기면,세종특별자치시 세종특별자치시 연기면 양화2길 49-7,127.2953449,36.50391272
F,생활서비스,F01,이/미용/건강,F01A01,여성미용실,S96112,두발미용업,3611025000,조치원읍,"세종특별자치시 조치원읍 조치원로 61-1, (상리)",127.3032555,36.60267818
Q,음식,Q03,일식/수산물,Q03A20,복전문,I56111,한식 음식점업,3611034000,금남면,"세종특별자치시 금남면 성덕영곡길 168-5, (영곡리)",127.2642428,36.45331956
R,학문/교육,R09,학원기타,R09A01,학원(종합),P85501,일반 교과 학원,3611025000,조치원읍,"세종특별자치시 조치원읍 새내로 133, (교리)",127.2973329,36.60375189
D,소매,D25,기타판매업,D25A02,복권판매,R91241,복권발행 및 판매업,3611025000,조치원읍,"세종특별자치시 조치원읍 행복길 11, (침산리)",127.2909982,36.60342599
L,부동산,L01,부동산중개,L01A01,부동산중개,L68221,부동산 자문 및 중개업,3611025000,조치원읍,"세종특별자치시 조치원읍 번암안동네길 6, (번암리)",127.2924226,36.58331049
D,소매,D08,사무/문구/컴퓨터,D08A03,컴퓨터/사무용기기종합,G47311,"컴퓨터 및 주변장치, 소프트웨어 소매업",3611034000,금남면,"세종특별자치시 금남면 용포로 74, (용포리)",127.2812918,36.46510333
D,소매,D21,철물/난방/건설자재소매,D21A11,태양열온수기판매,G47511,철물 및 난방용구 소매업,3611057000,대평동,"세종특별자치시 금남구즉로 19, (대평동)",127.2829916,36.46953857
D,소매,D03,종합소매점,D03A02,수퍼마켓,G47121,슈퍼마켓,3611051000,한솔동,"세종특별자치시 노을3로 25, (한솔동)",127.259329,36.48084862
D,소매,D01,음/식료품소매,D01A03,정육점,G47212,육류 소매업,3611025000,조치원읍,"세종특별자치시 조치원읍 조치원6길 13-2, (원리)",127.2996844,36.60080977
Q,음식,Q06,양식,Q06A01,정통양식/경양식,I56114,서양식 음식점업,3611037000,전의면,"세종특별자치시 전의면 운주산로 1191, (읍내리)",127.2046787,36.6791854
L,부동산,L01,부동산중개,L01A01,부동산중개,L68221,부동산 자문 및 중개업,3611036000,연서면,"세종특별자치시 연서면 세종로 2109, (월하리)",127.2914531,36.5756805
Q,음식,Q09,유흥주점,Q09A01,호프/맥주,I56219,기타 주점업,3611025000,조치원읍,"세종특별자치시 조치원읍 행복12길 5-12, (침산리)",127.2930673,36.60451972
Q,음식,Q09,유흥주점,Q09A01,호프/맥주,I56219,기타 주점업,3611025000,조치원읍,"세종특별자치시 조치원읍 행복5길 27-5, (침산리)",127.2926674,36.60546362
L,부동산,L01,부동산중개,L01A01,부동산중개,L68221,부동산 자문 및 중개업,3611036000,연서면,"세종특별자치시 연서면 세종로 2085, (월하리)",127.290467,36.57354778
Q,음식,Q05,닭/오리요리,Q05A08,후라이드/양념치킨,I56193,치킨 전문점,3611025000,조치원읍,"세종특별자치시 조치원읍 조치원6길 13-6, (원리)",127.2998518,36.60083779
D,소매,D16,화장품소매,D16A01,화장품판매점,G47813,화장품 및 방향제 소매업,3611025000,조치원읍,"세종특별자치시 조치원읍 새내로 5-1, (정리)",127.2988016,36.59956092
F,생활서비스,F02,세탁/가사서비스,F02A01,세탁소/빨래방,S96912,가정용 세탁업,3611025000,조치원읍,"세종특별자치시 조치원읍 충현로 72, 101동  (죽림리, 삼일)",127.2971306,36.59525231
N,관광/여가/오락,N02,무도/유흥/가무,N02A01,노래방,R91223,노래연습장 운영업,3611025000,조치원읍,"세종특별자치시 조치원읍 조치원1길 10, (원리)",127.297509,36.60159003
L,부동산,L01,부동산중개,L01A01,부동산중개,L68221,부동산 자문 및 중개업,3611035000,장군면,"세종특별자치시 장군면 풍경채길 26-6, (금암리)",127.2180801,36.43994932
D,소매,D05,의복의류,D05A09,남성의류전문점,,,3611025000,조치원읍,"세종특별자치시 조치원읍 새내10길 29, (원리)",127.2998648,36.6006396
Q,음식,Q01,한식,Q01A01,한식/백반/한정식,I56111,한식 음식점업,3611037000,전의면,"세종특별자치시 전의면 운주산로 1212, (읍내리)",127.2024216,36.67998137
Q,음식,Q12,커피점/카페,Q12A01,커피전문점/카페/다방,I56220,비알콜 음료점업,3611034000,금남면,"세종특별자치시 금남면 용포중앙1길 11-1, (용포리)",127.2827149,36.46566164
Q,음식,Q01,한식,Q01A01,한식/백반/한정식,I56111,한식 음식점업,3611032000,연동면,"세종특별자치시 연동면 예양길 2, (예양리)",127.3231407,36.57316999
Q,음식,Q07,패스트푸드,Q07A10,토스트전문,I56192,"피자, 햄버거, 샌드위치 및 유사 음식점업",3611025000,조치원읍,"세종특별자치시 조치원읍 세종로 2511, (서창리)",127.2910008,36.61169005
Q,음식,Q04,분식,Q04A01,라면김밥분식,I56194,분식 및 김밥 전문점,3611025000,조치원읍,"세종특별자치시 조치원읍 조치원6길 41, (정리)",127.2998628,36.59963024
Q,음식,Q02,중식,Q02A00,중국음식/중국집,I56112,중식 음식점업,3611038000,전동면,"세종특별자치시 전동면 운주산로 392, (노장리)",127.2635513,36.6557815
Q,음식,Q08,제과제빵떡케익,Q08A01,제과점,I56191,제과점업,3611025000,조치원읍,"세종특별자치시 조치원읍 조치원로 54, (상리)",127.3026257,36.60186341
Q,음식,Q01,한식,Q01A01,한식/백반/한정식,I56111,한식 음식점업,3611025000,조치원읍,"세종특별자치시 조치원읍 장안로 18-5, (정리)",127.301145,36.59997121
D,소매,D03,종합소매점,D03B10,할인점,G47119,기타 대형 종합 소매업,3611025000,조치원읍,"세종특별자치시 조치원읍 허만석로 60, (번암리)",127.2977252,36.58636991
L,부동산,L01,부동산중개,L01A01,부동산중개,L68221,부동산 자문 및 중개업,3611051000,한솔동,"세종특별자치시 노을1로 16, 202동  (한솔동, 첫마을퍼스트프라임2단지)",127.2606235,36.48084763
L,부동산,L01,부동산중개,L01A01,부동산중개,L68221,부동산 자문 및 중개업,3611051000,한솔동,"세종특별자치시 노을3로 14, (한솔동, 첫마을퍼스트프라임1단지)",127.2571609,36.48234018
L,부동산,L01,부동산중개,L01A01,부동산중개,L68221,부동산 자문 및 중개업,3611051000,한솔동,"세종특별자치시 노을3로 14, (한솔동, 첫마을퍼스트프라임1단지)",127.2571609,36.48234018
Q,음식,Q09,유흥주점,Q09A01,호프/맥주,I56219,기타 주점업,3611025000,조치원읍,"세종특별자치시 조치원읍 섭골길 74, (신안리)",127.2870962,36.61690276
Q,음식,Q10,별식/퓨전요리,Q10A05,순대전문점,I56111,한식 음식점업,3611034000,금남면,"세종특별자치시 금남면 용포2길 72, (용포리)",127.2800689,36.46341968
L,부동산,L01,부동산중개,L01A01,부동산중개,L68221,부동산 자문 및 중개업,3611051000,한솔동,"세종특별자치시 노을1로 16, 202동  (한솔동, 첫마을퍼스트프라임2단지)",127.2606235,36.48084763
D,소매,D18,사진/광학/정밀기기소매,D18A02,핸드폰소매,G47312,통신기기 소매업,3611051000,한솔동,"세종특별자치시 노을1로 16, 202동  (한솔동, 첫마을퍼스트프라임2단지)",127.2606235,36.48084763
F,생활서비스,F07,물품기기대여,F07A03,비디오/오디오테이프대여,L69220,음반 및 비디오물 임대업,3611034000,금남면,"세종특별자치시 금남면 용포2길 70, (용포리, 두진리버빌)",127.2797133,36.46326433
D,소매,D25,기타판매업,D25A17,농자재판매,G47859,그외 기타 분류안된 상품 전문 소매업,3611032000,연동면,"세종특별자치시 연동면 청연로 380, (응암리)",127.3363022,36.5418817
L,부동산,L01,부동산중개,L01A01,부동산중개,L68221,부동산 자문 및 중개업,3611025000,조치원읍,"세종특별자치시 조치원읍 충현로 159, (침산리, 욱일2차)",127.2941772,36.60292216
D,소매,D02,선물/팬시/기념품,D02A02,꽃집/꽃배달,G47851,화초 및 산식물 소매업,3611037000,전의면,"세종특별자치시 전의면 운주산로 1204-3, (읍내리)",127.203106,36.67980572
F,생활서비스,F14,자동차/이륜차,F14A01,자동차정비/카센타,,,3611025000,조치원읍,"세종특별자치시 조치원읍 충현로 16, (죽림리)",127.2994412,36.5906247
D,소매,D25,기타판매업,D25A12,LPG판매,G47723,가정용 가스연료 소매업,3611025000,조치원읍,"세종특별자치시 조치원읍 봉신길 71-31, (신안리)",127.2780356,36.61507283
F,생활서비스,F12,광고/인쇄,F12A03,광고물제작,C33910,간판 및 광고물 제조업,3611025000,조치원읍,"세종특별자치시 조치원읍 세종로 2639, (신안리)",127.2880984,36.61976556
R,학문/교육,R07,학원-예능취미체육,R07A20,태권도장,P85611,스포츠 교육기관,3611025000,조치원읍,"세종특별자치시 조치원읍 세종로 2342, (신흥리)",127.2912205,36.59623568
R,학문/교육,R13,학문교육기타,R13A01,학습지보급,P85503,방문 교육 학원,3611025000,조치원읍,"세종특별자치시 조치원읍 대첩로 17, (신흥리)",127.2941905,36.59532506
D,소매,D24,중고품소매/교환,D24A02,재활용/고물수집,G47869,기타 중고상품 소매업,3611031000,연기면,"세종특별자치시 연기면 수왕로 426, (수산리)",127.2326505,36.54257558
D,소매,D01,음/식료품소매,D01A10,어물상,G47213,수산물 소매업,3611025000,조치원읍,"세종특별자치시 조치원읍 조치원8길 34-7, (정리)",127.3003408,36.59991242
F,생활서비스,F11,개인서비스,F11A02,운명감정작명,S96992,점술 및 유사 서비스업,3611038000,전동면,"세종특별자치시 전동면 심동로 393-100, (심중리)",127.3003245,36.68085819
L,부동산,L01,부동산중개,L01A01,부동산중개,L68221,부동산 자문 및 중개업,3611025000,조치원읍,"세종특별자치시 조치원읍 행복4길 39, (침산리)",127.2940818,36.60481412
R,학문/교육,R08,유아교육,R08A02,어린이집,Q87210,보육시설 운영업,3611032000,연동면,"세종특별자치시 연동면 연지길 24, (내판리)",127.3288794,36.55687244
L,부동산,L01,부동산중개,L01A01,부동산중개,L68221,부동산 자문 및 중개업,3611034000,금남면,"세종특별자치시 금남면 용포로 102, (용포리)",127.2820163,36.46760409
F,생활서비스,F14,자동차/이륜차,F14A01,자동차정비/카센타,,,3611025000,조치원읍,"세종특별자치시 조치원읍 새내로 197-4, (서창리)",127.2963169,36.60977496
F,생활서비스,F15,주택수리,F15A04,유리창호,F42420,유리 및 창호 공사업,3611036000,연서면,"세종특별자치시 연서면 도원로 155, (쌍전리)",127.2807481,36.57938345
D,소매,D24,중고품소매/교환,D24A02,재활용/고물수집,G47869,기타 중고상품 소매업,3611034000,금남면,"세종특별자치시 금남면 용포로 120-18, (신촌리)",127.2817237,36.46908935
D,소매,D03,종합소매점,D03B06,구판장/직판장,G47129,기타 음·식료품 위주 종합 소매업,3611036000,연서면,"세종특별자치시 연서면 국촌1길 16-1, (국촌리)",127.2719001,36.57204796
F,생활서비스,F14,자동차/이륜차,F14A01,자동차정비/카센타,,,3611037000,전의면,"세종특별자치시 전의면 운주산로 1144, (동교리)",127.2093196,36.67831511
D,소매,D01,음/식료품소매,D01A04,닭집,G47212,육류 소매업,3611036000,연서면,"세종특별자치시 연서면 당산로 359-1, (봉암리)",127.2829937,36.5637069
L,부동산,L01,부동산중개,L01A01,부동산중개,L68221,부동산 자문 및 중개업,3611036000,연서면,"세종특별자치시 연서면 당산로 342-1, (봉암리)",127.282472,36.56213566
F,생활서비스,F03,개인/가정용품수리,F03A02,가전제품수리,S95310,가전제품 수리업,3611036000,연서면,"세종특별자치시 연서면 아홉거리길 100, (월하리)",127.2841208,36.59410245
D,소매,D04,취미/오락관련소매,D04A13,수족관,G47852,애완용 동물 및 관련용품 소매업,3611025000,조치원읍,"세종특별자치시 조치원읍 새내14길 19, (교리)",127.298823,36.60337315
D,소매,D24,중고품소매/교환,D24A02,재활용/고물수집,G47869,기타 중고상품 소매업,3611037000,전의면,"세종특별자치시 전의면 의당전의로 382-4, (달전리)",127.1744824,36.63089235
D,소매,D03,종합소매점,D03A02,수퍼마켓,G47121,슈퍼마켓,3611025000,조치원읍,"세종특별자치시 조치원읍 침천길 29, (침산리, 용성빌라)",127.2959311,36.59811107
D,소매,D21,철물/난방/건설자재소매,D21A06,철물/건설자재소매,G47511,철물 및 난방용구 소매업,3611025000,조치원읍,"세종특별자치시 조치원읍 장안로 15, (명리)",127.3014556,36.60023438
D,소매,D02,선물/팬시/기념품,D02A02,꽃집/꽃배달,G47851,화초 및 산식물 소매업,3611025000,조치원읍,"세종특별자치시 조치원읍 충현로 230-2, (서창리)",127.2939168,36.60941831
D,소매,D21,철물/난방/건설자재소매,D21A03,목제품판매,G47519,"페인트, 유리 및 기타 건설자재 소매업",3611025000,조치원읍,"세종특별자치시 조치원읍 으뜸길 110, (남리)",127.2977903,36.59645481
D,소매,D21,철물/난방/건설자재소매,D21A02,보일러/냉난방용품,G47511,철물 및 난방용구 소매업,3611025000,조치원읍,"세종특별자치시 조치원읍 허만석로 61, (번암리)",127.29697,36.58707741
D,소매,D08,사무/문구/컴퓨터,D08A03,컴퓨터/사무용기기종합,G47311,"컴퓨터 및 주변장치, 소프트웨어 소매업",3611025000,조치원읍,"세종특별자치시 조치원읍 죽림로 60, (죽림리)",127.2981322,36.59201387
F,생활서비스,F14,자동차/이륜차,F14A01,자동차정비/카센타,,,3611025000,조치원읍,"세종특별자치시 조치원읍 안터길 8, (신안리)",127.2895858,36.62580349
D,소매,D03,종합소매점,D03A03,잡화점,G47190,그외 기타 종합 소매업,3611037000,전의면,"세종특별자치시 전의면 운주산로 1220, (읍내리)",127.2015398,36.67978622
F,생활서비스,F15,주택수리,F15A01,주택수리종합,S95399,그외 기타 개인 및 가정용품 수리업,3611037000,전의면,"세종특별자치시 전의면 상대부길 46, (관정리)",127.2086868,36.71278132
D,소매,D23,자동차/자동차용품,D23A11,자동차유리전문점,G45219,기타 자동차신품 부품 및 내장품 판매업,3611025000,조치원읍,"세종특별자치시 조치원읍 번암안동네길 6, (번암리)",127.2924226,36.58331049
D,소매,D12,가전제품소매,D12A01,일반가전제품,G47320,가전제품 소매업,3611025000,조치원읍,"세종특별자치시 조치원읍 새내10길 50, (정리)",127.3009613,36.60051086
F,생활서비스,F18,장례/묘지,F18A01,장의사/관련서비스-종합,S96921,장례식장 및 장의관련 서비스업,3611037000,전의면,"세종특별자치시 전의면 사시리길 16, (신흥리)",127.1924639,36.66927122
D,소매,D03,종합소매점,D03A02,수퍼마켓,G47121,슈퍼마켓,3611025000,조치원읍,"세종특별자치시 조치원읍 허만석로 57-1, (번암리)",127.2967708,36.58686896
D,소매,D03,종합소매점,D03A02,수퍼마켓,G47121,슈퍼마켓,3611036000,연서면,"세종특별자치시 연서면 당산로 359, (봉암리)",127.2829499,36.56361652
F,생활서비스,F01,이/미용/건강,F01A03,비만/피부관리,,,3611025000,조치원읍,"세종특별자치시 조치원읍 충현로 159, (침산리, 욱일2차)",127.2941772,36.60292216
F,생활서비스,F13,기타서비스업,F13A12,사업중개업,M73903,사업 및 무형 재산권 중개업,3611037000,전의면,"세종특별자치시 전의면 영성들길 32-8, (영당리)",127.1902481,36.65866718
F,생활서비스,F05,인력/고용/용역알선,F05A02,인력공급/고용알선,,,3611025000,조치원읍,"세종특별자치시 조치원읍 보람길 5, (원리)",127.2967017,36.600639
D,소매,D21,철물/난방/건설자재소매,D21A02,보일러/냉난방용품,G47511,철물 및 난방용구 소매업,3611037000,전의면,"세종특별자치시 전의면 읍내길 25, (읍내리)",127.2039171,36.68143328
F,생활서비스,F14,자동차/이륜차,F14A03,오토바이판매/수리,,,3611025000,조치원읍,"세종특별자치시 조치원읍 죽림본로 3, (죽림리)",127.2984154,36.59160098
D,소매,D02,선물/팬시/기념품,D02A02,꽃집/꽃배달,G47851,화초 및 산식물 소매업,3611025000,조치원읍,"세종특별자치시 조치원읍 새내6길 38, (남리)",127.3007565,36.59843688
D,소매,D21,철물/난방/건설자재소매,D21A02,보일러/냉난방용품,G47511,철물 및 난방용구 소매업,3611025000,조치원읍,"세종특별자치시 조치원읍 조치원8길 38, (정리)",127.30062,36.59994109
D,소매,D03,종합소매점,D03A02,수퍼마켓,G47121,슈퍼마켓,3611025000,조치원읍,"세종특별자치시 조치원읍 산막2길 7, (죽림리, 신동아)",127.2968029,36.59318662
L,부동산,L01,부동산중개,L01A01,부동산중개,L68221,부동산 자문 및 중개업,3611025000,조치원읍,"세종특별자치시 조치원읍 장안길 19, (정리)",127.3003659,36.59961517
D,소매,D01,음/식료품소매,D01A04,닭집,G47212,육류 소매업,3611025000,조치원읍,"세종특별자치시 조치원읍 운주산로 60, (신안리, 조형)",127.2892701,36.63583198
F,생활서비스,F15,주택수리,F15A03,배관난방보일러,F42201,배관 및 냉·난방 공사업,3611037000,전의면,"세종특별자치시 전의면 운주산로 1174, (동교리)",127.2063975,36.6796024
D,소매,D01,음/식료품소매,D01A15,곡물소매,G47211,곡물 소매업,3611025000,조치원읍,"세종특별자치시 조치원읍 충현로 159, (침산리, 욱일2차)",127.2941772,36.60292216
D,소매,D23,자동차/자동차용품,D23A06,자동차부품판매,G45219,기타 자동차신품 부품 및 내장품 판매업,3611025000,조치원읍,"세종특별자치시 조치원읍 새내로 197-7, (서창리)",127.2961312,36.60930524
D,소매,D01,음/식료품소매,D01A13,청과물소매,G47214,과실 및 채소 소매업,3611025000,조치원읍,"세종특별자치시 조치원읍 으뜸길 183, (원리)",127.2969443,36.59977528
F,생활서비스,F12,광고/인쇄,F12A01,인쇄종합,C18119,기타 인쇄업,3611025000,조치원읍,"세종특별자치시 조치원읍 새내8길 83, (명리)",127.3030679,36.59991939
F,생활서비스,F05,인력/고용/용역알선,F05A02,인력공급/고용알선,,,3611025000,조치원읍,"세종특별자치시 조치원읍 새내7길 10, (정리)",127.2978874,36.5993032
F,생활서비스,F14,자동차/이륜차,F14A01,자동차정비/카센타,,,3611025000,조치원읍,"세종특별자치시 조치원읍 세종로 2685-21, (신안리)",127.2885654,36.62734747
D,소매,D13,책/서적/도서,D13A06,잡지/신문소매,G47611,서적 및 잡지류 소매업,3611025000,조치원읍,"세종특별자치시 조치원읍 충현로 58-16, (죽림리)",127.2978378,36.59490501
L,부동산,L01,부동산중개,L01A01,부동산중개,L68221,부동산 자문 및 중개업,3611025000,조치원읍,"세종특별자치시 조치원읍 충현로 58-20, (죽림리)",127.2977807,36.59504887
D,소매,D21,철물/난방/건설자재소매,D21A06,철물/건설자재소매,G47511,철물 및 난방용구 소매업,3611025000,조치원읍,세종특별자치시 세종특별자치시 조치원읍 군청로 16-2,127.2950197,36.58648912
F,생활서비스,F01,이/미용/건강,F01A04,남성미용실,S96111,이용업,3611025000,조치원읍,"세종특별자치시 조치원읍 장안로 20, (정리)",127.3012566,36.59998989
Q,음식,Q04,분식,Q04A01,라면김밥분식,I56194,분식 및 김밥 전문점,3611037000,전의면,"세종특별자치시 전의면 운주산로 1510, (유천리)",127.1853258,36.69694314
Q,음식,Q02,중식,Q02A00,중국음식/중국집,I56112,중식 음식점업,3611025000,조치원읍,"세종특별자치시 조치원읍 충현로 159, (침산리, 욱일2차)",127.2941772,36.60292216
Q,음식,Q01,한식,Q01A02,갈비/삼겹살,I56111,한식 음식점업,3611025000,조치원읍,"세종특별자치시 조치원읍 행복10길 3, (침산리)",127.2912099,36.60350835
Q,음식,Q04,분식,Q04A02,국수/만두/칼국수,I56194,분식 및 김밥 전문점,3611051000,한솔동,"세종특별자치시 노을3로 25, (한솔동)",127.259329,36.48084862
Q,음식,Q01,한식,Q01A01,한식/백반/한정식,I56111,한식 음식점업,3611037000,전의면,"세종특별자치시 전의면 운주산로 1510, (유천리)",127.1853258,36.69694314
F,생활서비스,F01,이/미용/건강,F01A01,여성미용실,S96112,두발미용업,3611037000,전의면,"세종특별자치시 전의면 동신길 3, (동교리, 재동아파트)",127.2069545,36.67983141
Q,음식,Q01,한식,Q01A01,한식/백반/한정식,I56111,한식 음식점업,3611051500,새롬동,"세종특별자치시 한누리대로 157, (나성동)",127.2624794,36.47931803
Q,음식,Q01,한식,Q01A01,한식/백반/한정식,I56111,한식 음식점업,3611037000,전의면,"세종특별자치시 전의면 운주산로 1510, (유천리)",127.1853258,36.69694314
Q,음식,Q01,한식,Q01A01,한식/백반/한정식,I56111,한식 음식점업,3611035000,장군면,"세종특별자치시 장군면 장기초교길 62, (도계리)",127.2109741,36.49399389
Q,음식,Q12,커피점/카페,Q12A01,커피전문점/카페/다방,I56220,비알콜 음료점업,3611025000,조치원읍,"세종특별자치시 조치원읍 새내2길 21-2, (남리)",127.3003566,36.59692952
Q,음식,Q09,유흥주점,Q09A01,호프/맥주,I56219,기타 주점업,3611025000,조치원읍,"세종특별자치시 조치원읍 행복4길 29, (침산리)",127.2930208,36.60471771
Q,음식,Q01,한식,Q01A01,한식/백반/한정식,I56111,한식 음식점업,3611025000,조치원읍,"세종특별자치시 조치원읍 조치원5길 21, (원리)",127.2990787,36.60228419
Q,음식,Q04,분식,Q04A03,떡볶이전문,I56194,분식 및 김밥 전문점,3611025000,조치원읍,"세종특별자치시 조치원읍 허만석로 60-1, (번암리)",127.2981245,36.58669669
N,관광/여가/오락,N01,PC/오락/당구/볼링등,N01A08,전자오락실,R91221,전자 게임장 운영업,3611025000,조치원읍,"세종특별자치시 조치원읍 으뜸길 232, (원리)",127.2968695,36.60185662
D,소매,D01,음/식료품소매,D01A07,반찬가게,G47219,기타 식료품 소매업,3611025000,조치원읍,"세종특별자치시 조치원읍 조치원로 26, (원리)",127.2995681,36.60131376
Q,음식,Q01,한식,Q01A13,파전전문,I56111,한식 음식점업,3611025000,조치원읍,"세종특별자치시 조치원읍 행복4길 25, (침산리)",127.2925853,36.60467007
F,생활서비스,F06,사진,F06A01,사진관,M73301,인물사진 및 행사용비디오 촬영업,3611025000,조치원읍,"세종특별자치시 조치원읍 조치원1길 6, (원리)",127.2975106,36.60141881
F,생활서비스,F13,기타서비스업,F13A11,패션디자인,M73209,기타 전문 디자인업,3611025000,조치원읍,"세종특별자치시 조치원읍 세종로 2639, (신안리)",127.2880984,36.61976556
D,소매,D18,사진/광학/정밀기기소매,D18A02,핸드폰소매,G47312,통신기기 소매업,3611025000,조치원읍,"세종특별자치시 조치원읍 조치원4길 5, (원리)",127.2987875,36.60111992
Q,음식,Q04,분식,Q04A01,라면김밥분식,I56194,분식 및 김밥 전문점,3611025000,조치원읍,"세종특별자치시 조치원읍 으뜸길 208, (원리)",127.297058,36.60079431
Q,음식,Q09,유흥주점,Q09A10,룸살롱/단란주점,I56211,일반유흥 주점업,3611025000,조치원읍,"세종특별자치시 조치원읍 조치원5길 12-17, (원리)",127.3000637,36.60213677
Q,음식,Q01,한식,Q01A04,한정식전문,I56111,한식 음식점업,3611033000,부강면,"세종특별자치시 부강면 부촌길 51, (부강리)",127.3662038,36.5305538
D,소매,D03,종합소매점,D03A02,수퍼마켓,G47121,슈퍼마켓,3611051000,한솔동,"세종특별자치시 노을3로 25, (한솔동)",127.259329,36.48084862
Q,음식,Q01,한식,Q01A10,쌈밥전문,I56111,한식 음식점업,3611025000,조치원읍,"세종특별자치시 조치원읍 행복8길 7, (침산리)",127.2916304,36.60274483
F,생활서비스,F01,이/미용/건강,F01A01,여성미용실,S96112,두발미용업,3611051500,새롬동,"세종특별자치시 한누리대로 169, (나성동)",127.2618123,36.48023315
Q,음식,Q01,한식,Q01A10,쌈밥전문,I56111,한식 음식점업,3611034000,금남면,"세종특별자치시 금남면 금병로 993, (부용리)",127.3489471,36.49899017
D,소매,D18,사진/광학/정밀기기소매,D18A02,핸드폰소매,G47312,통신기기 소매업,3611025000,조치원읍,"세종특별자치시 조치원읍 장안로 10-5, (원리)",127.3011604,36.60074634
D,소매,D23,자동차/자동차용품,D23A06,자동차부품판매,G45219,기타 자동차신품 부품 및 내장품 판매업,3611025000,조치원읍,"세종특별자치시 조치원읍 배수장길 8, (남리)",127.3035634,36.59204573
F,생활서비스,F02,세탁/가사서비스,F02A05,청소/소독,,,3611025000,조치원읍,"세종특별자치시 조치원읍 오구미3길 7-7, (남리)",127.3033917,36.59872267
D,소매,D01,음/식료품소매,D01A13,청과물소매,G47214,과실 및 채소 소매업,3611025000,조치원읍,"세종특별자치시 조치원읍 신안새동네길 6, (신안리)",127.2921854,36.61417541
F,생활서비스,F15,주택수리,F15A03,배관난방보일러,F42201,배관 및 냉·난방 공사업,3611034000,금남면,"세종특별자치시 금남면 국곡길 81, (국곡리)",127.2717661,36.43137571
F,생활서비스,F13,기타서비스업,F13A01,사업경영상담,M71531,경영컨설팅업,3611035000,장군면,"세종특별자치시 장군면 할미터길 34-11, (하봉리)",127.1895789,36.49382345
L,부동산,L03,분양,L03A04,건물분양-종합,,,3611039000,소정면,"세종특별자치시 소정면 매실로 224, (고등리)",127.1964476,36.707878
Q,음식,Q01,한식,Q01A01,한식/백반/한정식,I56111,한식 음식점업,3611025000,조치원읍,"세종특별자치시 조치원읍 도장말길 30, (죽림리, 조치원신동아파밀리에)",127.2974675,36.59014445
L,부동산,L01,부동산중개,L01A01,부동산중개,L68221,부동산 자문 및 중개업,3611034000,금남면,"세종특별자치시 금남면 용포로 94-1, (용포리)",127.2818096,36.46703507
D,소매,D21,철물/난방/건설자재소매,D21A06,철물/건설자재소매,G47511,철물 및 난방용구 소매업,3611036000,연서면,"세종특별자치시 연서면 연서로 63, (성제리)",127.2606609,36.58485705
O,숙박,O02,모텔/여관/여인숙,O02A01,모텔/여관/여인숙,I55112,여관업,3611036000,연서면,"세종특별자치시 연서면 도신고복로 911-5, (고복리)",127.2478148,36.61313758
D,소매,D01,음/식료품소매,D01A07,반찬가게,G47219,기타 식료품 소매업,3611025000,조치원읍,"세종특별자치시 조치원읍 새내10길 40, (정리)",127.3004704,36.60041786
L,부동산,L03,분양,L03A04,건물분양-종합,,,3611051500,새롬동,"세종특별자치시 한누리대로 205, (나성동)",127.2599232,36.48290709
L,부동산,L03,분양,L03A04,건물분양-종합,,,3611034000,금남면,"세종특별자치시 금남면 용포로 21, (용포리)",127.2803848,36.46062778
N,관광/여가/오락,N02,무도/유흥/가무,N02A01,노래방,R91223,노래연습장 운영업,3611031000,연기면,"세종특별자치시 연기면 당산로 115, (연기리)",127.2764266,36.54433622
Q,음식,Q04,분식,Q04A02,국수/만두/칼국수,I56194,분식 및 김밥 전문점,3611025000,조치원읍,"세종특별자치시 조치원읍 새내10길 8, (정리)",127.2987062,36.60021824
Q,음식,Q09,유흥주점,Q09A10,룸살롱/단란주점,I56211,일반유흥 주점업,3611037000,전의면,"세종특별자치시 전의면 운주산로 1174, (동교리)",127.2063975,36.6796024
L,부동산,L01,부동산중개,L01A01,부동산중개,L68221,부동산 자문 및 중개업,3611035000,장군면,"세종특별자치시 장군면 장척로 565, (봉안리)",127.2205189,36.49940985
D,소매,D03,종합소매점,D03A02,수퍼마켓,G47121,슈퍼마켓,3611035000,장군면,"세종특별자치시 장군면 장척로 419, (도계리)",127.2066786,36.49820112
Q,음식,Q12,커피점/카페,Q12A01,커피전문점/카페/다방,I56220,비알콜 음료점업,3611034000,금남면,"세종특별자치시 금남면 안금로 533-6, (감성리)",127.2879463,36.44019722
R,학문/교육,R08,유아교육,R08A05,블럭놀이방,Q87210,보육시설 운영업,3611052000,도담동,"세종특별자치시 절재로 154, (어진동)",127.2588522,36.50746771
D,소매,D14,운동/경기용품소매,D14A08,등산용품판매,G47631,운동 및 경기용품 소매업,3611052000,도담동,"세종특별자치시 절재로 154, (어진동)",127.2588522,36.50746771
F,생활서비스,F01,이/미용/건강,F01A01,여성미용실,S96112,두발미용업,3611025000,조치원읍,"세종특별자치시 조치원읍 충현로 61-1, (죽림리)",127.2973172,36.59438826
N,관광/여가/오락,N08,경마/경륜/성인오락,N08A01,게임룸,R91249,기타 갬블링 및 베팅업,3611035000,장군면,"세종특별자치시 장군면 장척로 565, (봉안리)",127.2205189,36.49940985
L,부동산,L03,분양,L03A04,건물분양-종합,,,3611038000,전동면,"세종특별자치시 전동면 덕용골길 49, (심중리)",127.2827159,36.66011605
L,부동산,L01,부동산중개,L01A01,부동산중개,L68221,부동산 자문 및 중개업,3611036000,연서면,"세종특별자치시 연서면 세종로 1931, (봉암리)",127.2837977,36.56132352
L,부동산,L03,분양,L03A04,건물분양-종합,,,3611051500,새롬동,"세종특별자치시 한누리대로 169, (나성동)",127.2618123,36.48023315
F,생활서비스,F01,이/미용/건강,F01A03,비만/피부관리,,,3611051000,한솔동,"세종특별자치시 금송로 687, (가람동)",127.2509879,36.47089212
Q,음식,Q01,한식,Q01A11,두부요리전문,I56111,한식 음식점업,3611025000,조치원읍,"세종특별자치시 조치원읍 새내10길 21, (원리)",127.2994299,36.6005289
F,생활서비스,F05,인력/고용/용역알선,F05A02,인력공급/고용알선,,,3611034000,금남면,"세종특별자치시 금남면 용포로 27, (용포리)",127.2802711,36.46086142
F,생활서비스,F03,개인/가정용품수리,F03A08,옷수선,S95391,"신발, 의복 및 기타 가정용 직물제품 수리업",3611025000,조치원읍,"세종특별자치시 조치원읍 새내8길 22-13, (정리, 풍산아파트)",127.3003532,36.59854266
D,소매,D02,선물/팬시/기념품,D02A02,꽃집/꽃배달,G47851,화초 및 산식물 소매업,3611034000,금남면,"세종특별자치시 금남면 용포로 85-2, (용포리)",127.2813358,36.46638334
Q,음식,Q01,한식,Q01A99,기타고기요리,I56111,한식 음식점업,3611035000,장군면,"세종특별자치시 장군면 봉안산소골길 4-5, (봉안리)",127.2216023,36.49934483
Q,음식,Q01,한식,Q01A01,한식/백반/한정식,I56111,한식 음식점업,3611025000,조치원읍,"세종특별자치시 조치원읍 충현로 149, (침산리)",127.2946573,36.60175343
D,소매,D05,의복의류,D05A01,일반의류,G47416,셔츠 및 기타 의복 소매업,3611037000,전의면,"세종특별자치시 전의면 운주산로 1183, (읍내리)",127.2055528,36.67904704
L,부동산,L01,부동산중개,L01A01,부동산중개,L68221,부동산 자문 및 중개업,3611034000,금남면,"세종특별자치시 금남면 용포로 94-1, (용포리)",127.2818096,36.46703507
D,소매,D25,기타판매업,D25A11,성인용품판매,G47859,그외 기타 분류안된 상품 전문 소매업,3611025000,조치원읍,"세종특별자치시 조치원읍 허만석로 35, (번암리)",127.2953217,36.58523822
D,소매,D02,선물/팬시/기념품,D02A02,꽃집/꽃배달,G47851,화초 및 산식물 소매업,3611025000,조치원읍,"세종특별자치시 조치원읍 새내10길 8, (정리)",127.2987062,36.60021824
D,소매,D07,가정/주방/인테리어,D07A02,주방용품,G47592,식탁 및 주방용품 소매업,3611025000,조치원읍,"세종특별자치시 조치원읍 비로봉길 2, (번암리)",127.2962249,36.58545084
F,생활서비스,F14,자동차/이륜차,F14A03,오토바이판매/수리,,,3611034000,금남면,"세종특별자치시 금남면 용포로 87-5, (용포리)",127.280989,36.46648038
Q,음식,Q12,커피점/카페,Q12A01,커피전문점/카페/다방,I56220,비알콜 음료점업,3611034000,금남면,"세종특별자치시 금남면 용포로 85-2, (용포리)",127.2813358,36.46638334
F,생활서비스,F02,세탁/가사서비스,F02A01,세탁소/빨래방,S96912,가정용 세탁업,3611025000,조치원읍,"세종특별자치시 조치원읍 도장말길 30, (죽림리, 조치원신동아파밀리에)",127.2974675,36.59014445
Q,음식,Q01,한식,Q01A01,한식/백반/한정식,I56111,한식 음식점업,3611025000,조치원읍,"세종특별자치시 조치원읍 장안2길 30, (명리)",127.3024979,36.59991605
N,관광/여가/오락,N01,PC/오락/당구/볼링등,N01A01,인터넷PC방,R91222,컴퓨터 게임방 운영업,3611034000,금남면,"세종특별자치시 금남면 용포로 45, (용포리)",127.280343,36.4627364
F,생활서비스,F05,인력/고용/용역알선,F05A02,인력공급/고용알선,,,3611025000,조치원읍,"세종특별자치시 조치원읍 새내로 127, (교리)",127.2976171,36.60323086
F,생활서비스,F14,자동차/이륜차,F14A01,자동차정비/카센타,,,3611034000,금남면,"세종특별자치시 금남면 용포2길 57-1, (용포리)",127.2785905,36.4640326
L,부동산,L01,부동산중개,L01A01,부동산중개,L68221,부동산 자문 및 중개업,3611025000,조치원읍,"세종특별자치시 조치원읍 행복길 4, (침산리)",127.2901856,36.60306067
D,소매,D14,운동/경기용품소매,D14A05,낚시용품판매,G47631,운동 및 경기용품 소매업,3611034000,금남면,"세종특별자치시 금남면 용포로 45, (용포리)",127.280343,36.4627364
Q,음식,Q09,유흥주점,Q09A01,호프/맥주,I56219,기타 주점업,3611031000,연기면,"세종특별자치시 연기면 당산로 143-1, (연기리)",127.2782402,36.54628482
Q,음식,Q12,커피점/카페,Q12A01,커피전문점/카페/다방,I56220,비알콜 음료점업,3611025000,조치원읍,"세종특별자치시 조치원읍 장안로 18-9, (정리)",127.3008992,36.59996076
D,소매,D10,건강/미용식품,D10A04,건강식품판매,G47216,건강보조식품 소매업,3611037000,전의면,"세종특별자치시 전의면 장터길 14, (읍내리)",127.2052777,36.67860363
F,생활서비스,F05,인력/고용/용역알선,F05A02,인력공급/고용알선,,,3611025000,조치원읍,"세종특별자치시 조치원읍 새내로 127, (교리)",127.2976171,36.60323086
F,생활서비스,F05,인력/고용/용역알선,F05A02,인력공급/고용알선,,,3611037000,전의면,"세종특별자치시 전의면 장터길 14, (읍내리)",127.2052777,36.67860363
L,부동산,L01,부동산중개,L01A01,부동산중개,L68221,부동산 자문 및 중개업,3611034000,금남면,"세종특별자치시 금남면 용포로 106, (용포리)",127.2820127,36.4680006
L,부동산,L01,부동산중개,L01A01,부동산중개,L68221,부동산 자문 및 중개업,3611034000,금남면,"세종특별자치시 금남면 용포로 89, (용포리)",127.2814341,36.46661825
Q,음식,Q01,한식,Q01A01,한식/백반/한정식,I56111,한식 음식점업,3611037000,전의면,"세종특별자치시 전의면 장터길 14, (읍내리)",127.2052777,36.67860363
Q,음식,Q01,한식,Q01A01,한식/백반/한정식,I56111,한식 음식점업,3611036000,연서면,"세종특별자치시 연서면 당산로 283, (봉암리)",127.2781267,36.55848656
F,생활서비스,F11,개인서비스,F11A01,탐정/경호,,,3611051500,새롬동,"세종특별자치시 한누리대로 169, (나성동)",127.2618123,36.48023315
Q,음식,Q03,일식/수산물,Q03A06,아구전문,I56111,한식 음식점업,3611034000,금남면,"세종특별자치시 금남면 용포로 106, (용포리)",127.2820127,36.4680006
F,생활서비스,F03,개인/가정용품수리,F03A16,농기구수리,S95399,그외 기타 개인 및 가정용품 수리업,3611036000,연서면,"세종특별자치시 연서면 당산로 494, (월하리)",127.2909411,36.57424453
Q,음식,Q01,한식,Q01A10,쌈밥전문,I56111,한식 음식점업,3611025000,조치원읍,"세종특별자치시 조치원읍 행복5길 31-6, (침산리)",127.2933609,36.60541366
Q,음식,Q01,한식,Q01A01,한식/백반/한정식,I56111,한식 음식점업,3611036000,연서면,"세종특별자치시 연서면 세종로 2085, (월하리)",127.290467,36.57354778
F,생활서비스,F06,사진,F06A01,사진관,M73301,인물사진 및 행사용비디오 촬영업,3611025000,조치원읍,"세종특별자치시 조치원읍 충현로 28, (죽림리)",127.2990302,36.59158657
N,관광/여가/오락,N03,연극/영화/극장,N03A06,연극/음악/예술관련기타,,,3611025000,조치원읍,"세종특별자치시 조치원읍 새내8길 71, (명리)",127.302398,36.59984337
R,학문/교육,R05,학원-음악미술무용,R05A02,피아노/바이올린/기타,P85620,예술 학원,3611025000,조치원읍,"세종특별자치시 조치원읍 새내로 133, (교리)",127.2973329,36.60375189
L,부동산,L01,부동산중개,L01A01,부동산중개,L68221,부동산 자문 및 중개업,3611025000,조치원읍,"세종특별자치시 조치원읍 충현로 31, (죽림리)",127.2983562,36.59197013
D,소매,D24,중고품소매/교환,D24A03,중고가전가구,,,3611025000,조치원읍,"세종특별자치시 조치원읍 새내6길 9, (정리)",127.2989561,36.59854346
D,소매,D01,음/식료품소매,D01A03,정육점,G47212,육류 소매업,3611025000,조치원읍,"세종특별자치시 조치원읍 조치원6길 13-2, (원리)",127.2996844,36.60080977
Q,음식,Q06,양식,Q06A02,돈가스전문점,I56114,서양식 음식점업,3611025000,조치원읍,"세종특별자치시 조치원읍 보람길 7, (원리)",127.2966011,36.60063841
L,부동산,L01,부동산중개,L01A01,부동산중개,L68221,부동산 자문 및 중개업,3611036000,연서면,"세종특별자치시 연서면 세종로 2141, (월하리)",127.2919982,36.57838736
Q,음식,Q04,분식,Q04A03,떡볶이전문,I56194,분식 및 김밥 전문점,3611025000,조치원읍,"세종특별자치시 조치원읍 조치원로 24-1, (원리)",127.2993246,36.60105098
D,소매,D18,사진/광학/정밀기기소매,D18A02,핸드폰소매,G47312,통신기기 소매업,3611052000,도담동,"세종특별자치시 절재로 154, (어진동)",127.2588522,36.50746771
Q,음식,Q12,커피점/카페,Q12A06,전통찻집/인삼찻집,I56220,비알콜 음료점업,3611036000,연서면,"세종특별자치시 연서면 당산로 364, (봉암리)",127.2835056,36.56392627
L,부동산,L01,부동산중개,L01A01,부동산중개,L68221,부동산 자문 및 중개업,3611025000,조치원읍,"세종특별자치시 조치원읍 충현로 69, (죽림리)",127.2967199,36.59494348
D,소매,D25,기타판매업,D25A23,통신판매,G47911,전자상거래업,3611025000,조치원읍,"세종특별자치시 조치원읍 행복길 25, (침산리)",127.2924387,36.60358775
D,소매,D21,철물/난방/건설자재소매,D21A07,열쇠판매/수리,G47511,철물 및 난방용구 소매업,3611025000,조치원읍,"세종특별자치시 조치원읍 장안로 32, (정리)",127.3013666,36.59895415
Q,음식,Q03,일식/수산물,Q03A01,횟집,I56111,한식 음식점업,3611025000,조치원읍,"세종특별자치시 조치원읍 새내8길 18, (정리)",127.2994301,36.59926721
F,생활서비스,F02,세탁/가사서비스,F02A04,방앗간/정미소,,,3611025000,조치원읍,"세종특별자치시 조치원읍 조치원6길 13-2, (원리)",127.2996844,36.60080977
Q,음식,Q09,유흥주점,Q09A02,소주방/포장마차,I56219,기타 주점업,3611025000,조치원읍,"세종특별자치시 조치원읍 행복12길 13, (침산리)",127.2940461,36.60382258
F,생활서비스,F15,주택수리,F15A02,미장타일도배도장,,,3611025000,조치원읍,"세종특별자치시 조치원읍 충현로 25-1, (죽림리)",127.2985726,36.5915208
N,관광/여가/오락,N01,PC/오락/당구/볼링등,N01A08,전자오락실,R91221,전자 게임장 운영업,3611025000,조치원읍,"세종특별자치시 조치원읍 새내로 122, (교리)",127.2981568,36.60287356
L,부동산,L01,부동산중개,L01A01,부동산중개,L68221,부동산 자문 및 중개업,3611031000,연기면,"세종특별자치시 연기면 세종로 1785, (연기리)",127.2756807,36.5500544
F,생활서비스,F18,장례/묘지,F18A02,묘지관리-종합,S96922,"화장, 묘지분양 및 관리업",3611037000,전의면,"세종특별자치시 전의면 운주산로 1184, (읍내리)",127.2055603,36.67940757
Q,음식,Q09,유흥주점,Q09A01,호프/맥주,I56219,기타 주점업,3611025000,조치원읍,"세종특별자치시 조치원읍 으뜸길 226, (원리)",127.2970613,36.60165949
L,부동산,L01,부동산중개,L01A01,부동산중개,L68221,부동산 자문 및 중개업,3611025000,조치원읍,"세종특별자치시 조치원읍 행복8길 2, (침산리)",127.2912916,36.60313033
Q,음식,Q01,한식,Q01A01,한식/백반/한정식,I56111,한식 음식점업,3611035000,장군면,"세종특별자치시 장군면 장척로 513, (봉안리)",127.2159652,36.50045247
L,부동산,L01,부동산중개,L01A01,부동산중개,L68221,부동산 자문 및 중개업,3611025000,조치원읍,"세종특별자치시 조치원읍 충현로 43, (죽림리)",127.298045,36.59300468
F,생활서비스,F03,개인/가정용품수리,F03A08,옷수선,S95391,"신발, 의복 및 기타 가정용 직물제품 수리업",3611052000,도담동,"세종특별자치시 절재로 154, (어진동)",127.2588522,36.50746771
L,부동산,L01,부동산중개,L01A01,부동산중개,L68221,부동산 자문 및 중개업,3611025000,조치원읍,"세종특별자치시 조치원읍 새내8길 83, (명리)",127.3030679,36.59991939
L,부동산,L01,부동산중개,L01A01,부동산중개,L68221,부동산 자문 및 중개업,3611025000,조치원읍,"세종특별자치시 조치원읍 허만석로 13-5, (번암리)",127.2933164,36.5833248
Q,음식,Q01,한식,Q01A01,한식/백반/한정식,I56111,한식 음식점업,3611025000,조치원읍,"세종특별자치시 조치원읍 새내10길 19, (원리)",127.2992388,36.60064494
Q,음식,Q04,분식,Q04A03,떡볶이전문,I56194,분식 및 김밥 전문점,3611025000,조치원읍,"세종특별자치시 조치원읍 장안길 7, (정리)",127.3003819,36.6003182
F,생활서비스,F14,자동차/이륜차,F14A07,주차장운영,H52915,주차장 운영업,3611025000,조치원읍,"세종특별자치시 조치원읍 새내로 97, (원리)",127.2980452,36.60039459
N,관광/여가/오락,N01,PC/오락/당구/볼링등,N01A01,인터넷PC방,R91222,컴퓨터 게임방 운영업,3611025000,조치원읍,"세종특별자치시 조치원읍 행복4길 19, (침산리)",127.2918817,36.60460281
D,소매,D07,가정/주방/인테리어,D07A03,침구/수예품,G47411,가정용 직물제품 소매업,3611025000,조치원읍,"세종특별자치시 조치원읍 충현로 30, (죽림리)",127.2989388,36.59180233
D,소매,D05,의복의류,D05A09,남성의류전문점,,,3611025000,조치원읍,"세종특별자치시 조치원읍 허만석로 60, (번암리)",127.2977252,36.58636991
D,소매,D07,가정/주방/인테리어,D07A10,조명기구/전기용품,G47591,전기용품 및 조명장치 소매업,3611025000,조치원읍,"세종특별자치시 조치원읍 장안길 16, (정리)",127.3000404,36.59975745
Q,음식,Q05,닭/오리요리,Q05A08,후라이드/양념치킨,I56193,치킨 전문점,3611025000,조치원읍,"세종특별자치시 조치원읍 조치원6길 13-2, (원리)",127.2996844,36.60080977
D,소매,D07,가정/주방/인테리어,D07A05,정수기연수기,G47320,가전제품 소매업,3611035000,장군면,"세종특별자치시 장군면 장척로 382, (도계리)",127.203858,36.49567695
L,부동산,L03,분양,L03A04,건물분양-종합,,,3611035000,장군면,"세종특별자치시 장군면 장척로 401, (도계리)",127.2052047,36.49715491
D,소매,D05,의복의류,D05A18,섬유/직물/주단,G47419,"기타 섬유, 직물 및 의복액세서리 소매업",3611025000,조치원읍,"세종특별자치시 조치원읍 장안로 7, (상리)",127.3014149,36.60103622
Q,음식,Q03,일식/수산물,Q03A13,낙지/오징어,I56111,한식 음식점업,3611025000,조치원읍,"세종특별자치시 조치원읍 행복8길 2, (침산리)",127.2912916,36.60313033
F,생활서비스,F05,인력/고용/용역알선,F05A02,인력공급/고용알선,,,3611034000,금남면,"세종특별자치시 금남면 용포느티나무길 21, (용포리)",127.2818271,36.46513359
D,소매,D03,종합소매점,D03A02,수퍼마켓,G47121,슈퍼마켓,3611025000,조치원읍,"세종특별자치시 조치원읍 장안로 48, (남리)",127.3014365,36.59739547
D,소매,D03,종합소매점,D03A02,수퍼마켓,G47121,슈퍼마켓,3611025000,조치원읍,"세종특별자치시 조치원읍 으뜸길 201, (원리)",127.296815,36.60046844
Q,음식,Q01,한식,Q01A02,갈비/삼겹살,I56111,한식 음식점업,3611051000,한솔동,"세종특별자치시 누리로 110, (한솔동)",127.2530995,36.47991758
F,생활서비스,F09,대중목욕탕/휴게,F09A04,휴게텔,S96999,그외 기타 달리 분류되지 않은 개인 서비스업,3611034000,금남면,"세종특별자치시 금남면 안금로 533-8, (감성리)",127.2877571,36.44015103
L,부동산,L01,부동산중개,L01A01,부동산중개,L68221,부동산 자문 및 중개업,3611036000,연서면,"세종특별자치시 연서면 월하1길 1, (월하리)",127.2913213,36.57542737
D,소매,D05,의복의류,D05A07,셔츠/내의/속옷,,,3611025000,조치원읍,"세종특별자치시 조치원읍 새내10길 15, (원리)",127.2991501,36.60057232
D,소매,D01,음/식료품소매,D01A13,청과물소매,G47214,과실 및 채소 소매업,3611025000,조치원읍,"세종특별자치시 조치원읍 새내10길 15, (원리)",127.2991501,36.60057232
Q,음식,Q01,한식,Q01A01,한식/백반/한정식,I56111,한식 음식점업,3611025000,조치원읍,"세종특별자치시 조치원읍 허만석로 35, (번암리)",127.2953217,36.58523822
D,소매,D05,의복의류,D05A01,일반의류,G47416,셔츠 및 기타 의복 소매업,3611025000,조치원읍,"세종특별자치시 조치원읍 장안길 16, (정리)",127.3000404,36.59975745
D,소매,D10,건강/미용식품,D10A05,인삼제품판매,G47216,건강보조식품 소매업,3611025000,조치원읍,"세종특별자치시 조치원읍 새내로 76, (정리)",127.2987311,36.59870435
N,관광/여가/오락,N01,PC/오락/당구/볼링등,N01A01,인터넷PC방,R91222,컴퓨터 게임방 운영업,3611025000,조치원읍,"세종특별자치시 조치원읍 새내2길 17, (남리)",127.2997875,36.59682704
R,학문/교육,R09,학원기타,R09A11,학원-기타,P85699,그외 기타 분류안된 교육기관,3611025000,조치원읍,"세종특별자치시 조치원읍 충현로 191, (침산리)",127.2939532,36.60542618
Q,음식,Q04,분식,Q04A03,떡볶이전문,I56194,분식 및 김밥 전문점,3611025000,조치원읍,"세종특별자치시 조치원읍 조치원로 24-1, (원리)",127.2993246,36.60105098
D,소매,D06,가방/신발/액세서리,D06A07,양품점,G47419,"기타 섬유, 직물 및 의복액세서리 소매업",3611037000,전의면,"세종특별자치시 전의면 운주산로 1191, (읍내리)",127.2046787,36.6791854
Q,음식,Q02,중식,Q02A00,중국음식/중국집,I56112,중식 음식점업,3611035000,장군면,"세종특별자치시 장군면 대학길 194, (금암리)",127.2114321,36.45540666
Q,음식,Q01,한식,Q01A01,한식/백반/한정식,I56111,한식 음식점업,3611025000,조치원읍,"세종특별자치시 조치원읍 새내2길 28, (남리)",127.3005165,36.59654294
Q,음식,Q12,커피점/카페,Q12A01,커피전문점/카페/다방,I56220,비알콜 음료점업,3611025000,조치원읍,"세종특별자치시 조치원읍 장안로 32, (정리)",127.3013666,36.59895415
D,소매,D21,철물/난방/건설자재소매,D21A07,열쇠판매/수리,G47511,철물 및 난방용구 소매업,3611025000,조치원읍,"세종특별자치시 조치원읍 새내로 88-2, (정리)",127.2985776,36.59961367
D,소매,D23,자동차/자동차용품,D23A04,타이어판매,G45211,자동차 타이어 및 튜브 판매업,3611025000,조치원읍,"세종특별자치시 조치원읍 주막거리길 3-1, (번암리)",127.2953738,36.58565309
L,부동산,L01,부동산중개,L01A01,부동산중개,L68221,부동산 자문 및 중개업,3611034000,금남면,"세종특별자치시 금남면 용포로 89, (용포리)",127.2814341,36.46661825
Q,음식,Q01,한식,Q01A01,한식/백반/한정식,I56111,한식 음식점업,3611025000,조치원읍,"세종특별자치시 조치원읍 행복2길 15, (침산리)",127.2916986,36.6038447
Q,음식,Q05,닭/오리요리,Q05A08,후라이드/양념치킨,I56193,치킨 전문점,3611025000,조치원읍,"세종특별자치시 조치원읍 새내로 119-1, (교리)",127.2976677,36.60257328
F,생활서비스,F05,인력/고용/용역알선,F05A02,인력공급/고용알선,,,3611025000,조치원읍,"세종특별자치시 조치원읍 충현로 73-1, (죽림리)",127.2964607,36.59517627
Q,음식,Q01,한식,Q01A99,기타고기요리,I56111,한식 음식점업,3611025000,조치원읍,"세종특별자치시 조치원읍 행복5길 31-1, (침산리)",127.2931398,36.605151
Q,음식,Q01,한식,Q01A05,해장국/감자탕,I56111,한식 음식점업,3611025000,조치원읍,"세종특별자치시 조치원읍 으뜸길 227-2, (원리)",127.2962894,36.60173604
L,부동산,L01,부동산중개,L01A01,부동산중개,L68221,부동산 자문 및 중개업,3611025000,조치원읍,"세종특별자치시 조치원읍 도장말길 34, (죽림리)",127.296977,36.59000638
D,소매,D01,음/식료품소매,D01A01,식료품점,G47219,기타 식료품 소매업,3611025000,조치원읍,"세종특별자치시 조치원읍 장안길 15, (정리)",127.3003196,36.59978613
D,소매,D05,의복의류,D05A01,일반의류,G47416,셔츠 및 기타 의복 소매업,3611025000,조치원읍,"세종특별자치시 조치원읍 새내10길 24, (정리)",127.2996118,36.60018751
D,소매,D21,철물/난방/건설자재소매,D21A06,철물/건설자재소매,G47511,철물 및 난방용구 소매업,3611034000,금남면,"세종특별자치시 금남면 용포로 84, (용포리)",127.2815287,36.46603302
Q,음식,Q15,부페,Q15A03,한식부페,I56111,한식 음식점업,3611035000,장군면,"세종특별자치시 장군면 장척로 567, (봉안리)",127.22072,36.49938413
Q,음식,Q10,별식/퓨전요리,Q10A05,순대전문점,I56111,한식 음식점업,3611025000,조치원읍,"세종특별자치시 조치원읍 으뜸길 208, (원리)",127.297058,36.60079431
R,학문/교육,R05,학원-음악미술무용,R05A05,학원-무용,P85620,예술 학원,3611052000,도담동,"세종특별자치시 절재로 154, (어진동)",127.2588522,36.50746771
L,부동산,L01,부동산중개,L01A01,부동산중개,L68221,부동산 자문 및 중개업,3611025000,조치원읍,"세종특별자치시 조치원읍 새내2길 17, (남리)",127.2997875,36.59682704
Q,음식,Q01,한식,Q01A01,한식/백반/한정식,I56111,한식 음식점업,3611031000,연기면,"세종특별자치시 연기면 당산로 143-1, (연기리)",127.2782402,36.54628482
D,소매,D18,사진/광학/정밀기기소매,D18A02,핸드폰소매,G47312,통신기기 소매업,3611025000,조치원읍,"세종특별자치시 조치원읍 행복길 20, (침산리)",127.2917153,36.603241
D,소매,D10,건강/미용식품,D10A07,건강원,G47216,건강보조식품 소매업,3611025000,조치원읍,"세종특별자치시 조치원읍 충현로 96, (침산리)",127.2958066,36.59705593
Q,음식,Q01,한식,Q01A01,한식/백반/한정식,I56111,한식 음식점업,3611025000,조치원읍,"세종특별자치시 조치원읍 조치원4길 136, (남리)",127.2996786,36.59527633
Q,음식,Q12,커피점/카페,Q12A01,커피전문점/카페/다방,I56220,비알콜 음료점업,3611025000,조치원읍,"세종특별자치시 조치원읍 조치원8길 27, (정리)",127.3008617,36.60040213
Q,음식,Q04,분식,Q04A01,라면김밥분식,I56194,분식 및 김밥 전문점,3611038000,전동면,"세종특별자치시 전동면 운주산로 361, (노장리)",127.2660301,36.65387725
Q,음식,Q05,닭/오리요리,Q05A08,후라이드/양념치킨,I56193,치킨 전문점,3611025000,조치원읍,"세종특별자치시 조치원읍 이화로 5, (신흥리, 신흥주공)",127.2886976,36.59469761
Q,음식,Q09,유흥주점,Q09A02,소주방/포장마차,I56219,기타 주점업,3611025000,조치원읍,"세종특별자치시 조치원읍 새내12길 40, (원리)",127.3000508,36.60231694
Q,음식,Q01,한식,Q01A99,기타고기요리,I56111,한식 음식점업,3611025000,조치원읍,"세종특별자치시 조치원읍 행복길 20, (침산리)",127.2917153,36.603241
D,소매,D03,종합소매점,D03B04,시장/종합상가,G47129,기타 음·식료품 위주 종합 소매업,3611037000,전의면,"세종특별자치시 전의면 운주산로 1213, (읍내리)",127.2020013,36.67951895
D,소매,D01,음/식료품소매,D01A07,반찬가게,G47219,기타 식료품 소매업,3611025000,조치원읍,"세종특별자치시 조치원읍 새내10길 28, (정리)",127.2998787,36.60034229
Q,음식,Q01,한식,Q01A01,한식/백반/한정식,I56111,한식 음식점업,3611037000,전의면,"세종특별자치시 전의면 만세길 20-3, (읍내리)",127.2043686,36.67887692
Q,음식,Q01,한식,Q01A01,한식/백반/한정식,I56111,한식 음식점업,3611034000,금남면,"세종특별자치시 금남면 용포로 85-5, (용포리)",127.2808466,36.46619113
D,소매,D10,건강/미용식품,D10A07,건강원,G47216,건강보조식품 소매업,3611037000,전의면,"세종특별자치시 전의면 동신길 3, (동교리, 재동아파트)",127.2069545,36.67983141
Q,음식,Q09,유흥주점,Q09A10,룸살롱/단란주점,I56211,일반유흥 주점업,3611025000,조치원읍,"세종특별자치시 조치원읍 조치원로 6-1, (원리)",127.2973354,36.60101224
Q,음식,Q12,커피점/카페,Q12A01,커피전문점/카페/다방,I56220,비알콜 음료점업,3611025000,조치원읍,"세종특별자치시 조치원읍 새내7길 6, (정리)",127.2981999,36.5993501
Q,음식,Q05,닭/오리요리,Q05A08,후라이드/양념치킨,I56193,치킨 전문점,3611037000,전의면,"세종특별자치시 전의면 동신길 3, (동교리, 재동아파트)",127.2069545,36.67983141
Q,음식,Q01,한식,Q01A07,부대찌개/섞어찌개,I56111,한식 음식점업,3611025000,조치원읍,세종특별자치시 세종특별자치시 조치원읍 향나무길 93,127.2810331,36.60527684
Q,음식,Q01,한식,Q01A99,기타고기요리,I56111,한식 음식점업,3611025000,조치원읍,"세종특별자치시 조치원읍 돌마루2길 7, (서창리)",127.291954,36.60646873
Q,음식,Q01,한식,Q01A01,한식/백반/한정식,I56111,한식 음식점업,3611034000,금남면,"세종특별자치시 금남면 바람재로 2, (감성리)",127.2883604,36.44003746
Q,음식,Q09,유흥주점,Q09A01,호프/맥주,I56219,기타 주점업,3611025000,조치원읍,"세종특별자치시 조치원읍 대첩로 68, (신흥리)",127.2887486,36.59522062
Q,음식,Q02,중식,Q02A00,중국음식/중국집,I56112,중식 음식점업,3611031000,연기면,"세종특별자치시 연기면 당산로 134, (연기리)",127.2779928,36.54525594
Q,음식,Q01,한식,Q01A01,한식/백반/한정식,I56111,한식 음식점업,3611025000,조치원읍,"세종특별자치시 조치원읍 조치원4길 33, (정리)",127.2991446,36.59994144
Q,음식,Q05,닭/오리요리,Q05A08,후라이드/양념치킨,I56193,치킨 전문점,3611025000,조치원읍,"세종특별자치시 조치원읍 도장말길 48, (죽림리)",127.2967872,36.59121288
Q,음식,Q04,분식,Q04A01,라면김밥분식,I56194,분식 및 김밥 전문점,3611025000,조치원읍,"세종특별자치시 조치원읍 봉산로 11, (서창리)",127.2887585,36.60632353
D,소매,D10,건강/미용식품,D10A07,건강원,G47216,건강보조식품 소매업,3611036000,연서면,"세종특별자치시 연서면 당산로 356-2, (봉암리)",127.2831773,36.5631853
D,소매,D16,화장품소매,D16A01,화장품판매점,G47813,화장품 및 방향제 소매업,3611025000,조치원읍,"세종특별자치시 조치원읍 허만석로 60, (번암리)",127.2977252,36.58636991
Q,음식,Q02,중식,Q02A00,중국음식/중국집,I56112,중식 음식점업,3611025000,조치원읍,"세종특별자치시 조치원읍 충현로 159, (침산리, 욱일2차)",127.2941772,36.60292216
L,부동산,L01,부동산중개,L01A01,부동산중개,L68221,부동산 자문 및 중개업,3611051000,한솔동,"세종특별자치시 노을1로 16, 202동  (한솔동, 첫마을퍼스트프라임2단지)",127.2606235,36.48084763
Q,음식,Q07,패스트푸드,Q07A01,피자전문,I56192,"피자, 햄버거, 샌드위치 및 유사 음식점업",3611025000,조치원읍,"세종특별자치시 조치원읍 돌마루1길 1-8, (서창리)",127.2907395,36.60604696
L,부동산,L01,부동산중개,L01A01,부동산중개,L68221,부동산 자문 및 중개업,3611051000,한솔동,"세종특별자치시 노을3로 14, (한솔동, 첫마을퍼스트프라임1단지)",127.2571609,36.48234018
Q,음식,Q09,유흥주점,Q09A01,호프/맥주,I56219,기타 주점업,3611037000,전의면,"세종특별자치시 전의면 운주산로 1168, (동교리)",127.2073925,36.67967211
L,부동산,L01,부동산중개,L01A01,부동산중개,L68221,부동산 자문 및 중개업,3611051000,한솔동,"세종특별자치시 나리1로 16, 301동  (한솔동, 첫마을퍼스트프라임3단지)",127.2590393,36.47727798
F,생활서비스,F12,광고/인쇄,F12A02,간판제작종합,C33910,간판 및 광고물 제조업,3611025000,조치원읍,"세종특별자치시 조치원읍 허만석로 75, (죽림리)",127.2980567,36.58801206
L,부동산,L01,부동산중개,L01A01,부동산중개,L68221,부동산 자문 및 중개업,3611051000,한솔동,"세종특별자치시 나리1로 16, 301동  (한솔동, 첫마을퍼스트프라임3단지)",127.2590393,36.47727798
D,소매,D03,종합소매점,D03A01,편의점,G47122,체인화 편의점,3611025000,조치원읍,"세종특별자치시 조치원읍 토골고개길 13, (신안리)",127.290082,36.62290457
L,부동산,L01,부동산중개,L01A01,부동산중개,L68221,부동산 자문 및 중개업,3611051000,한솔동,"세종특별자치시 나리1로 16, 301동  (한솔동, 첫마을퍼스트프라임3단지)",127.2590393,36.47727798
L,부동산,L01,부동산중개,L01A01,부동산중개,L68221,부동산 자문 및 중개업,3611051000,한솔동,"세종특별자치시 나리1로 16, 301동  (한솔동, 첫마을퍼스트프라임3단지)",127.2590393,36.47727798
F,생활서비스,F03,개인/가정용품수리,F03A07,컴퓨터수리,S95121,컴퓨터 및 사무용 기기 수리업,3611025000,조치원읍,"세종특별자치시 조치원읍 허만석로 57, (번암리)",127.296861,36.58677937
F,생활서비스,F03,개인/가정용품수리,F03A04,가구수리,S95399,그외 기타 개인 및 가정용품 수리업,3611036000,연서면,"세종특별자치시 연서면 당산로 324, (봉암리)",127.2810663,36.5607213
L,부동산,L01,부동산중개,L01A01,부동산중개,L68221,부동산 자문 및 중개업,3611025000,조치원읍,"세종특별자치시 조치원읍 군청로 90, (죽림리)",127.2937671,36.59273609
D,소매,D05,의복의류,D05A01,일반의류,G47416,셔츠 및 기타 의복 소매업,3611025000,조치원읍,"세종특별자치시 조치원읍 조치원5길 10, (원리)",127.299351,36.60183519
F,생활서비스,F16,주유소/충전소,F16A01,주유소,G47711,차량용 주유소 운영업,3611035000,장군면,"세종특별자치시 장군면 의당전의로 718, (송학리)",127.1907768,36.53958615
F,생활서비스,F14,자동차/이륜차,F14A01,자동차정비/카센타,,,3611038000,전동면,"세종특별자치시 전동면 전동로 2, (노장리)",127.2671721,36.65375812
F,생활서비스,F02,세탁/가사서비스,F02A04,방앗간/정미소,,,3611031000,연기면,세종특별자치시 세종특별자치시 연기면 갈운1길 73,127.2690647,36.52551001
N,관광/여가/오락,N02,무도/유흥/가무,N02A01,노래방,R91223,노래연습장 운영업,3611025000,조치원읍,"세종특별자치시 조치원읍 새내12길 31, (교리)",127.299702,36.60257624
D,소매,D07,가정/주방/인테리어,D07A14,지물판매,G47513,벽지 및 장판류 소매업,3611025000,조치원읍,"세종특별자치시 조치원읍 장안로 14, (정리)",127.3009625,36.6003847
D,소매,D23,자동차/자동차용품,D23A01,자동차판매,G45110,자동차 신품 판매업,3611025000,조치원읍,"세종특별자치시 조치원읍 충현로 40, (죽림리)",127.2986842,36.59277413
F,생활서비스,F14,자동차/이륜차,F14A01,자동차정비/카센타,,,3611037000,전의면,"세종특별자치시 전의면 운주산로 1239, (읍내리)",127.1992797,36.67978906
D,소매,D01,음/식료품소매,D01A07,반찬가게,G47219,기타 식료품 소매업,3611025000,조치원읍,"세종특별자치시 조치원읍 새내10길 19, (원리)",127.2992388,36.60064494
D,소매,D05,의복의류,D05A05,아동복판매,G47416,셔츠 및 기타 의복 소매업,3611025000,조치원읍,"세종특별자치시 조치원읍 허만석로 60, (번암리)",127.2977252,36.58636991
D,소매,D08,사무/문구/컴퓨터,D08A01,사무/문구용품,G47612,문구용품 소매업,3611025000,조치원읍,"세종특별자치시 조치원읍 세종로 2511, (서창리)",127.2910008,36.61169005
O,숙박,O03,캠프/별장/펜션,O03A01,캠프/별장/펜션,I55119,기타 관광숙박시설 운영업,3611037000,전의면,"세종특별자치시 전의면 의당전의로 461, (양곡리)",127.1747156,36.63838289
D,소매,D01,음/식료품소매,D01A14,미곡상,G47211,곡물 소매업,3611037000,전의면,"세종특별자치시 전의면 운주산로 1191, (읍내리)",127.2046243,36.67904085
D,소매,D05,의복의류,D05A03,여성의류전문점,,,3611025000,조치원읍,"세종특별자치시 조치원읍 조치원로 37, (원리)",127.3007714,36.60173538
F,생활서비스,F05,인력/고용/용역알선,F05A02,인력공급/고용알선,,,3611034000,금남면,"세종특별자치시 금남면 용포로 97-11, (용포리)",127.2806215,36.46761371
D,소매,D24,중고품소매/교환,D24A02,재활용/고물수집,G47869,기타 중고상품 소매업,3611025000,조치원읍,"세종특별자치시 조치원읍 번영1길 54, (남리)",127.3006939,36.59546253
D,소매,D25,기타판매업,D25A15,농기구판매,G47512,기계공구 소매업,3611025000,조치원읍,"세종특별자치시 조치원읍 새내로 61-2, (남리)",127.2985966,36.59750496
D,소매,D23,자동차/자동차용품,D23A06,자동차부품판매,G45219,기타 자동차신품 부품 및 내장품 판매업,3611036000,연서면,"세종특별자치시 연서면 세종로 2156-26, (월하리)",127.2938262,36.57765921
D,소매,D23,자동차/자동차용품,D23A04,타이어판매,G45211,자동차 타이어 및 튜브 판매업,3611025000,조치원읍,"세종특별자치시 조치원읍 세종로 2516, (서창리)",127.2938046,36.61069735
L,부동산,L01,부동산중개,L01A01,부동산중개,L68221,부동산 자문 및 중개업,3611034000,금남면,"세종특별자치시 금남면 용포로 21, (용포리)",127.2803848,36.46062778
N,관광/여가/오락,N02,무도/유흥/가무,N02A01,노래방,R91223,노래연습장 운영업,3611037000,전의면,"세종특별자치시 전의면 상교동1길 13, (동교리)",127.2086515,36.68018515
R,학문/교육,R08,유아교육,R08A02,어린이집,Q87210,보육시설 운영업,3611025000,조치원읍,"세종특별자치시 조치원읍 새내2길 41, (남리)",127.3010692,36.59722208
D,소매,D25,기타판매업,D25A15,농기구판매,G47512,기계공구 소매업,3611036000,연서면,"세종특별자치시 연서면 월하천로 241, (쌍전리)",127.2781978,36.57245576
D,소매,D21,철물/난방/건설자재소매,D21A02,보일러/냉난방용품,G47511,철물 및 난방용구 소매업,3611025000,조치원읍,"세종특별자치시 조치원읍 조치원로 59, (상리)",127.3031339,36.60252426
D,소매,D25,기타판매업,D25A16,동물약품판매,G47811,의약품 및 의료용품 소매업,3611025000,조치원읍,"세종특별자치시 조치원읍 조치원로 71, (상리)",127.30428,36.60309872
D,소매,D05,의복의류,D05A18,섬유/직물/주단,G47419,"기타 섬유, 직물 및 의복액세서리 소매업",3611025000,조치원읍,"세종특별자치시 조치원읍 장안로 3, (상리)",127.3015583,36.60124433
D,소매,D01,음/식료품소매,D01A13,청과물소매,G47214,과실 및 채소 소매업,3611025000,조치원읍,세종특별자치시 세종특별자치시 조치원읍 으뜸길 182,127.2973027,36.59968727
D,소매,D21,철물/난방/건설자재소매,D21A06,철물/건설자재소매,G47511,철물 및 난방용구 소매업,3611025000,조치원읍,"세종특별자치시 조치원읍 장안1길 28, (명리)",127.3019387,36.59995784
D,소매,D24,중고품소매/교환,D24A02,재활용/고물수집,G47869,기타 중고상품 소매업,3611038000,전동면,세종특별자치시 세종특별자치시 전동면 배일길 69-4,127.2553358,36.67031176
D,소매,D22,페인트/유리제품소매,D22A01,페인트/유리제품소매,G47519,"페인트, 유리 및 기타 건설자재 소매업",3611025000,조치원읍,"세종특별자치시 조치원읍 새내로 56, (남리)",127.299083,36.59686796
D,소매,D21,철물/난방/건설자재소매,D21A02,보일러/냉난방용품,G47511,철물 및 난방용구 소매업,3611036000,연서면,"세종특별자치시 연서면 아홉거리길 92, (월하리)",127.2832747,36.59374589
D,소매,D01,음/식료품소매,D01A01,식료품점,G47219,기타 식료품 소매업,3611025000,조치원읍,"세종특별자치시 조치원읍 조치원4길 150, (남리)",127.3001189,36.59478325
D,소매,D16,화장품소매,D16A01,화장품판매점,G47813,화장품 및 방향제 소매업,3611025000,조치원읍,"세종특별자치시 조치원읍 도장말길 45, (죽림리)",127.2955144,36.59107919
Q,음식,Q04,분식,Q04A01,라면김밥분식,I56194,분식 및 김밥 전문점,3611037000,전의면,"세종특별자치시 전의면 만세길 20-8, (읍내리)",127.2045846,36.67854493
L,부동산,L01,부동산중개,L01A01,부동산중개,L68221,부동산 자문 및 중개업,3611034000,금남면,"세종특별자치시 금남면 용포로 91-1, (용포리)",127.2814649,36.46690682
D,소매,D22,페인트/유리제품소매,D22A01,페인트/유리제품소매,G47519,"페인트, 유리 및 기타 건설자재 소매업",3611025000,조치원읍,"세종특별자치시 조치원읍 새내로 79, (정리)",127.2983942,36.5988736
F,생활서비스,F14,자동차/이륜차,F14A04,세차장,S95213,자동차 세차업,3611025000,조치원읍,"세종특별자치시 조치원읍 새내1길 8, (남리)",127.2982225,36.5968629
L,부동산,L01,부동산중개,L01A01,부동산중개,L68221,부동산 자문 및 중개업,3611025000,조치원읍,"세종특별자치시 조치원읍 충현로 28, (죽림리)",127.2990302,36.59158657
D,소매,D14,운동/경기용품소매,D14A08,등산용품판매,G47631,운동 및 경기용품 소매업,3611025000,조치원읍,"세종특별자치시 조치원읍 허만석로 60, (번암리)",127.2977252,36.58636991
L,부동산,L01,부동산중개,L01A01,부동산중개,L68221,부동산 자문 및 중개업,3611025000,조치원읍,"세종특별자치시 조치원읍 군청로 23, (번암리, 번암주공)",127.2935987,36.58668798
D,소매,D25,기타판매업,D25A15,농기구판매,G47512,기계공구 소매업,3611036000,연서면,"세종특별자치시 연서면 함박로 116, (국촌리)",127.2640194,36.57597391
D,소매,D25,기타판매업,D25A12,LPG판매,G47723,가정용 가스연료 소매업,3611038000,전동면,"세종특별자치시 전동면 전동로 122, (노장리)",127.2725992,36.66300161
D,소매,D23,자동차/자동차용품,D23A11,자동차유리전문점,G45219,기타 자동차신품 부품 및 내장품 판매업,3611025000,조치원읍,"세종특별자치시 조치원읍 충현로 34, (죽림리)",127.2992027,36.59228152
L,부동산,L01,부동산중개,L01A01,부동산중개,L68221,부동산 자문 및 중개업,3611036000,연서면,"세종특별자치시 연서면 도원로 32, (월하리)",127.288579,36.58813611
L,부동산,L01,부동산중개,L01A01,부동산중개,L68221,부동산 자문 및 중개업,3611034000,금남면,"세종특별자치시 금남면 용포로 87-2, (용포리)",127.2812437,36.4666892
D,소매,D08,사무/문구/컴퓨터,D08A01,사무/문구용품,G47612,문구용품 소매업,3611037000,전의면,"세종특별자치시 전의면 이적골길 25, (읍내리)",127.2006763,36.68322296
D,소매,D01,음/식료품소매,D01A11,건어물상,G47213,수산물 소매업,3611025000,조치원읍,"세종특별자치시 조치원읍 조치원8길 11, (원리)",127.3008427,36.60127619
N,관광/여가/오락,N02,무도/유흥/가무,N02A01,노래방,R91223,노래연습장 운영업,3611025000,조치원읍,"세종특별자치시 조치원읍 섭골길 80, (신안리)",127.2867016,36.61726088
D,소매,D25,기타판매업,D25A21,안전보호구판매,G47599,그외 기타 분류안된 가정용품 소매업,3611025000,조치원읍,"세종특별자치시 조치원읍 충현로 16-2, (죽림리)",127.2993391,36.59079533
D,소매,D24,중고품소매/교환,D24A02,재활용/고물수집,G47869,기타 중고상품 소매업,3611037000,전의면,"세종특별자치시 전의면 운주산로 1398, (유천리, 민석그린)",127.184488,36.68195968
L,부동산,L01,부동산중개,L01A01,부동산중개,L68221,부동산 자문 및 중개업,3611037000,전의면,"세종특별자치시 전의면 금지1길 2, (읍내리)",127.1967983,36.68062848
D,소매,D07,가정/주방/인테리어,D07A17,주방가구판매,G47520,가구 소매업,3611037000,전의면,"세종특별자치시 전의면 운주산로 1215, (읍내리)",127.2018452,36.67946383
D,소매,D14,운동/경기용품소매,D14A05,낚시용품판매,G47631,운동 및 경기용품 소매업,3611025000,조치원읍,"세종특별자치시 조치원읍 충현로 58-16, (죽림리)",127.2978378,36.59490501
D,소매,D21,철물/난방/건설자재소매,D21A02,보일러/냉난방용품,G47511,철물 및 난방용구 소매업,3611037000,전의면,"세종특별자치시 전의면 왕의물로 40, (동교리)",127.2042975,36.68252626
N,관광/여가/오락,N01,PC/오락/당구/볼링등,N01A03,당구장,R91135,당구장 운영업,3611025000,조치원읍,"세종특별자치시 조치원읍 조치원7길 27, (교리)",127.3000801,36.60278574
D,소매,D18,사진/광학/정밀기기소매,D18A02,핸드폰소매,G47312,통신기기 소매업,3611025000,조치원읍,"세종특별자치시 조치원읍 새내로 165, (교리)",127.2969954,36.60645352
D,소매,D24,중고품소매/교환,D24A02,재활용/고물수집,G47869,기타 중고상품 소매업,3611025000,조치원읍,"세종특별자치시 조치원읍 장안2길 106, (남리)",127.3030421,36.59657576
R,학문/교육,R01,학원-보습교습입시,R01A01,학원-입시,P85501,일반 교과 학원,3611038000,전동면,"세종특별자치시 전동면 모시터길 16-1, (송곡리)",127.2694685,36.6237713
F,생활서비스,F04,운송/배달/택배,F04A06,종합이삿짐대행,H49311,일반 화물자동차 운송업,3611037000,전의면,"세종특별자치시 전의면 오얏고지길 27, (신방리)",127.2064566,36.67384419
D,소매,D05,의복의류,D05A06,맞춤양장/양장점,G47413,남녀용 정장 소매업,3611025000,조치원읍,"세종특별자치시 조치원읍 새내로 90-2, (정리)",127.2985307,36.59984771
D,소매,D23,자동차/자동차용품,D23A06,자동차부품판매,G45219,기타 자동차신품 부품 및 내장품 판매업,3611031000,연기면,"세종특별자치시 연기면 공단로 6, (눌왕리)",127.2672869,36.54470399
D,소매,D23,자동차/자동차용품,D23A06,자동차부품판매,G45219,기타 자동차신품 부품 및 내장품 판매업,3611025000,조치원읍,"세종특별자치시 조치원읍 새내5길 5-1, (남리)",127.2983241,36.59798099
D,소매,D14,운동/경기용품소매,D14A01,운동/경기용품,G47631,운동 및 경기용품 소매업,3611025000,조치원읍,"세종특별자치시 조치원읍 세종로 2511, (서창리)",127.2910008,36.61169005
D,소매,D23,자동차/자동차용품,D23A02,중고자동차판매,G45120,중고 자동차 판매업,3611025000,조치원읍,"세종특별자치시 조치원읍 세종로 2685-21, (신안리)",127.2885654,36.62734747
D,소매,D07,가정/주방/인테리어,D07A10,조명기구/전기용품,G47591,전기용품 및 조명장치 소매업,3611025000,조치원읍,"세종특별자치시 조치원읍 새내로 86-1, (정리)",127.2985454,36.59946028
F,생활서비스,F14,자동차/이륜차,F14A01,자동차정비/카센타,,,3611025000,조치원읍,"세종특별자치시 조치원읍 충현로 21-1, (죽림리)",127.2983536,36.59102384
F,생활서비스,F14,자동차/이륜차,F14A01,자동차정비/카센타,,,3611025000,조치원읍,"세종특별자치시 조치원읍 주막거리길 3-1, (번암리)",127.2953738,36.58565309
D,소매,D23,자동차/자동차용품,D23A01,자동차판매,G45110,자동차 신품 판매업,3611025000,조치원읍,"세종특별자치시 조치원읍 허만석로 69, (번암리)",127.2977019,36.58770356
R,학문/교육,R10,도서관/독서실,R10A02,고시원,R90212,독서실 운영업,3611038000,전동면,"세종특별자치시 전동면 동막골길 123-2, (청람리)",127.2348347,36.65060788
D,소매,D02,선물/팬시/기념품,D02A02,꽃집/꽃배달,G47851,화초 및 산식물 소매업,3611037000,전의면,"세종특별자치시 전의면 읍내길 2, (읍내리)",127.2045749,36.67949111
F,생활서비스,F18,장례/묘지,F18A01,장의사/관련서비스-종합,S96921,장례식장 및 장의관련 서비스업,3611036000,연서면,"세종특별자치시 연서면 당산로 370-8, (봉암리)",127.2840427,36.56383036
L,부동산,L01,부동산중개,L01A01,부동산중개,L68221,부동산 자문 및 중개업,3611025000,조치원읍,"세종특별자치시 조치원읍 도원로 16, (죽림리, 자이아파트)",127.2908988,36.59108787
D,소매,D01,음/식료품소매,D01A24,냉동식품판매,G47219,기타 식료품 소매업,3611036000,연서면,"세종특별자치시 연서면 공단로 157, (부동리)",127.265668,36.55290408
D,소매,D01,음/식료품소매,D01A14,미곡상,G47211,곡물 소매업,3611025000,조치원읍,"세종특별자치시 조치원읍 장안2길 19, (명리)",127.302695,36.60037682
L,부동산,L01,부동산중개,L01A01,부동산중개,L68221,부동산 자문 및 중개업,3611036000,연서면,"세종특별자치시 연서면 당산로 345, (봉암리)",127.2824462,36.562505
F,생활서비스,F20,행사/이벤트,F20A02,이벤트기획,N75992,전시 및 행사 대행업,3611038000,전동면,"세종특별자치시 전동면 상소골길 75, (송정리)",127.2435042,36.62870106
D,소매,D03,종합소매점,D03A03,잡화점,G47190,그외 기타 종합 소매업,3611036000,연서면,"세종특별자치시 연서면 공단로 143, (부동리)",127.2717612,36.55231961
D,소매,D25,기타판매업,D25A23,통신판매,G47911,전자상거래업,3611037000,전의면,"세종특별자치시 전의면 운주산로 1410-1, (유천리)",127.1808841,36.6831155
L,부동산,L01,부동산중개,L01A01,부동산중개,L68221,부동산 자문 및 중개업,3611025000,조치원읍,"세종특별자치시 조치원읍 죽림본로 33-6, (죽림리, 죽림대우푸르지오)",127.297708,36.59073165
D,소매,D25,기타판매업,D25A02,복권판매,R91241,복권발행 및 판매업,3611025000,조치원읍,"세종특별자치시 조치원읍 조치원5길 12, (원리)",127.2993504,36.60190728
L,부동산,L01,부동산중개,L01A01,부동산중개,L68221,부동산 자문 및 중개업,3611025000,조치원읍,"세종특별자치시 조치원읍 도장말길 42-1, (죽림리)",127.296767,36.59097845
D,소매,D24,중고품소매/교환,D24A02,재활용/고물수집,G47869,기타 중고상품 소매업,3611037000,전의면,"세종특별자치시 전의면 취금헌로 471, (관정리)",127.2090644,36.7097919
D,소매,D09,애견/애완/동물,D09A01,애견/애완/동물사육판매,G47852,애완용 동물 및 관련용품 소매업,3611037000,전의면,"세종특별자치시 전의면 이적골길 29, (읍내리)",127.2008743,36.68354872
D,소매,D16,화장품소매,D16A01,화장품판매점,G47813,화장품 및 방향제 소매업,3611037000,전의면,"세종특별자치시 전의면 의당전의로 908, (원성리)",127.1970355,36.67287985
Q,음식,Q13,음식배달서비스,Q13A02,국/찌개배달,I56132,이동 음식업,3611037000,전의면,"세종특별자치시 전의면 운주산로 1168, (동교리)",127.2073925,36.67967211
F,생활서비스,F14,자동차/이륜차,F14A01,자동차정비/카센타,,,3611038000,전동면,"세종특별자치시 전동면 하석곡길 64-20, (석곡리)",127.2591387,36.65404187
D,소매,D24,중고품소매/교환,D24A02,재활용/고물수집,G47869,기타 중고상품 소매업,3611038000,전동면,"세종특별자치시 전동면 상석곡길 97, (석곡리)",127.2526536,36.65846228
L,부동산,L01,부동산중개,L01A01,부동산중개,L68221,부동산 자문 및 중개업,3611036000,연서면,"세종특별자치시 연서면 당산로 352, (봉암리)",127.283046,36.56288711
D,소매,D21,철물/난방/건설자재소매,D21A06,철물/건설자재소매,G47511,철물 및 난방용구 소매업,3611036000,연서면,"세종특별자치시 연서면 가마골길 149-3, (봉암리)",127.2760069,36.55820334
D,소매,D07,가정/주방/인테리어,D07A10,조명기구/전기용품,G47591,전기용품 및 조명장치 소매업,3611039000,소정면,세종특별자치시 세종특별자치시 소정면 운당양촌불당골길 25,127.1471895,36.70483179
D,소매,D03,종합소매점,D03A03,잡화점,G47190,그외 기타 종합 소매업,3611036000,연서면,"세종특별자치시 연서면 도신고복로 1057, (고복리)",127.2579834,36.60539691
D,소매,D21,철물/난방/건설자재소매,D21A06,철물/건설자재소매,G47511,철물 및 난방용구 소매업,3611037000,전의면,"세종특별자치시 전의면 운주산로 1248, (읍내리)",127.1985685,36.68039709
N,관광/여가/오락,N01,PC/오락/당구/볼링등,N01A03,당구장,R91135,당구장 운영업,3611036000,연서면,"세종특별자치시 연서면 월성로 73, (월하리)",127.2853888,36.57778918
F,생활서비스,F18,장례/묘지,F18A01,장의사/관련서비스-종합,S96921,장례식장 및 장의관련 서비스업,3611025000,조치원읍,"세종특별자치시 조치원읍 장안길 14, (정리)",127.3000284,36.59985651
D,소매,D03,종합소매점,D03A01,편의점,G47122,체인화 편의점,3611025000,조치원읍,"세종특별자치시 조치원읍 세종로 2511, (서창리)",127.2910008,36.61169005
D,소매,D07,가정/주방/인테리어,D07A01,인테리어/욕실용품/커튼,G47599,그외 기타 분류안된 가정용품 소매업,3611025000,조치원읍,"세종특별자치시 조치원읍 허만석로 60-1, (번암리)",127.2981245,36.58669669
L,부동산,L01,부동산중개,L01A01,부동산중개,L68221,부동산 자문 및 중개업,3611025000,조치원읍,"세종특별자치시 조치원읍 운주산로 60, (신안리, 조형)",127.2892701,36.63583198
F,생활서비스,F16,주유소/충전소,F16A02,차량가스충전소,G47712,차량용 가스 충전업,3611025000,조치원읍,"세종특별자치시 조치원읍 세종로 2167, (번암리)",127.2927474,36.58078002
L,부동산,L01,부동산중개,L01A01,부동산중개,L68221,부동산 자문 및 중개업,3611025000,조치원읍,"세종특별자치시 조치원읍 충현로 187, (침산리)",127.2939889,36.60519208
R,학문/교육,R04,학원-어학,R04A01,학원-외국어/어학,P85502,외국어학원,3611025000,조치원읍,"세종특별자치시 조치원읍 건강길 25, (원리)",127.2960173,36.60584393
D,소매,D05,의복의류,D05A08,맞춤양복/양복점,G47413,남녀용 정장 소매업,3611025000,조치원읍,"세종특별자치시 조치원읍 조치원8길 16, (원리)",127.3004548,36.60090442
R,학문/교육,R07,학원-예능취미체육,R07A11,학원-주산암산부기속셈,P85699,그외 기타 분류안된 교육기관,3611032000,연동면,"세종특별자치시 연동면 내송길 16, (내판리)",127.3263286,36.55860642
R,학문/교육,R13,학문교육기타,R13A01,학습지보급,P85503,방문 교육 학원,3611025000,조치원읍,"세종특별자치시 조치원읍 행복6길 12, (침산리)",127.2906374,36.60499194
F,생활서비스,F07,물품기기대여,F07A11,렌트카,L69110,자동차 임대업,3611025000,조치원읍,"세종특별자치시 조치원읍 죽림로 56, (죽림리)",127.2978081,36.59202097
D,소매,D07,가정/주방/인테리어,D07A15,유리/페인트/철물건축자재,G47519,"페인트, 유리 및 기타 건설자재 소매업",3611034000,금남면,"세종특별자치시 금남면 신촌2길 13-9, (신촌리)",127.2892396,36.47327097
F,생활서비스,F03,개인/가정용품수리,F03A16,농기구수리,S95399,그외 기타 개인 및 가정용품 수리업,3611025000,조치원읍,"세종특별자치시 조치원읍 새내로 59, (남리)",127.298589,36.59711739
F,생활서비스,F04,운송/배달/택배,F04B08,우체국/우편물취급소,J61100,우편업,3611031000,연기면,"세종특별자치시 연기면 당산로 118-1, (연기리)",127.2768631,36.54423072
R,학문/교육,R01,학원-보습교습입시,R01A01,학원-입시,P85501,일반 교과 학원,3611025000,조치원읍,"세종특별자치시 조치원읍 대동학교길 31, (신흥리)",127.2954642,36.5966033
Q,음식,Q14,기타음식업,Q14A01,구내식당/자급식음식점,I56120,기관구내식당업,3611025000,조치원읍,"세종특별자치시 조치원읍 으뜸길 215, (원리)",127.2963292,36.60350264
F,생활서비스,F15,주택수리,F15A06,수도설비,F42201,배관 및 냉·난방 공사업,3611038000,전동면,"세종특별자치시 전동면 하노장1길 3, (노장리)",127.266037,36.65433691
L,부동산,L01,부동산중개,L01A01,부동산중개,L68221,부동산 자문 및 중개업,3611025000,조치원읍,"세종특별자치시 조치원읍 충현로 31, (죽림리)",127.2983562,36.59197013
F,생활서비스,F02,세탁/가사서비스,F02A04,방앗간/정미소,,,3611025000,조치원읍,"세종특별자치시 조치원읍 새내8길 50, (정리)",127.3012055,36.59945788
D,소매,D01,음/식료품소매,D01A13,청과물소매,G47214,과실 및 채소 소매업,3611025000,조치원읍,"세종특별자치시 조치원읍 침산7길 12, (침산리)",127.2930296,36.60006754
F,생활서비스,F07,물품기기대여,F07A11,렌트카,L69110,자동차 임대업,3611025000,조치원읍,"세종특별자치시 조치원읍 세종로 2642, (신안리)",127.2909875,36.62169334
D,소매,D22,페인트/유리제품소매,D22A03,유리/거울판매,G47519,"페인트, 유리 및 기타 건설자재 소매업",3611025000,조치원읍,"세종특별자치시 조치원읍 장안길 8, (정리)",127.3000818,36.60012719
F,생활서비스,F05,인력/고용/용역알선,F05A02,인력공급/고용알선,,,3611025000,조치원읍,"세종특별자치시 조치원읍 문화길 29, (침산리)",127.2895008,36.6021734
L,부동산,L01,부동산중개,L01A01,부동산중개,L68221,부동산 자문 및 중개업,3611025000,조치원읍,"세종특별자치시 조치원읍 조치원8길 34, (정리)",127.3005399,36.6001479
L,부동산,L01,부동산중개,L01A01,부동산중개,L68221,부동산 자문 및 중개업,3611034000,금남면,"세종특별자치시 금남면 용포2길 70, (용포리, 두진리버빌)",127.2797133,36.46326433
F,생활서비스,F15,주택수리,F15A03,배관난방보일러,F42201,배관 및 냉·난방 공사업,3611025000,조치원읍,"세종특별자치시 조치원읍 새내2길 18, (남리)",127.2999014,36.5965934
F,생활서비스,F14,자동차/이륜차,F14A01,자동차정비/카센타,,,3611038000,전동면,"세종특별자치시 전동면 전동로 25, (노장리)",127.2681171,36.6555483
R,학문/교육,R08,유아교육,R08A02,어린이집,Q87210,보육시설 운영업,3611037000,전의면,"세종특별자치시 전의면 왕의물로 18-3, (동교리)",127.205689,36.68103958
F,생활서비스,F14,자동차/이륜차,F14A01,자동차정비/카센타,,,3611025000,조치원읍,"세종특별자치시 조치원읍 새내21길 6, (서창리)",127.2965945,36.60752359
F,생활서비스,F03,개인/가정용품수리,F03A08,옷수선,S95391,"신발, 의복 및 기타 가정용 직물제품 수리업",3611025000,조치원읍,"세종특별자치시 조치원읍 장안길 7, (정리)",127.3003819,36.6003182
D,소매,D21,철물/난방/건설자재소매,D21A06,철물/건설자재소매,G47511,철물 및 난방용구 소매업,3611036000,연서면,"세종특별자치시 연서면 당산로 351, (봉암리)",127.2827549,36.56294845
L,부동산,L01,부동산중개,L01A01,부동산중개,L68221,부동산 자문 및 중개업,3611032000,연동면,"세종특별자치시 연동면 청연로 254, (응암리)",127.3478336,36.53592517
F,생활서비스,F03,개인/가정용품수리,F03A02,가전제품수리,S95310,가전제품 수리업,3611025000,조치원읍,"세종특별자치시 조치원읍 조치원로 19-1, (원리)",127.29894,36.6015534
F,생활서비스,F14,자동차/이륜차,F14A01,자동차정비/카센타,,,3611025000,조치원읍,"세종특별자치시 조치원읍 새내로 47, (남리)",127.2988331,36.59607343
D,소매,D23,자동차/자동차용품,D23A02,중고자동차판매,G45120,중고 자동차 판매업,3611037000,전의면,"세종특별자치시 전의면 방앗골길 8, (관정리)",127.2122252,36.71155214
D,소매,D03,종합소매점,D03A02,수퍼마켓,G47121,슈퍼마켓,3611025000,조치원읍,"세종특별자치시 조치원읍 도장말길 45, (죽림리)",127.2955144,36.59107919
R,학문/교육,R06,학원-컴퓨터,R06A01,컴퓨터학원,P85691,컴퓨터 학원,3611037000,전의면,"세종특별자치시 전의면 운주산로 1216, (읍내리)",127.2021219,36.67975407
L,부동산,L01,부동산중개,L01A01,부동산중개,L68221,부동산 자문 및 중개업,3611025000,조치원읍,"세종특별자치시 조치원읍 세종로 2360, (신흥리)",127.2908712,36.59776565
D,소매,D10,건강/미용식품,D10A07,건강원,G47216,건강보조식품 소매업,3611025000,조치원읍,"세종특별자치시 조치원읍 돌마루길 21, (서창리)",127.2916804,36.60583626
F,생활서비스,F02,세탁/가사서비스,F02A01,세탁소/빨래방,S96912,가정용 세탁업,3611036000,연서면,"세종특별자치시 연서면 당산로 364, (봉암리)",127.2835056,36.56392627
Q,음식,Q04,분식,Q04A02,국수/만두/칼국수,I56194,분식 및 김밥 전문점,3611025000,조치원읍,"세종특별자치시 조치원읍 조치원6길 13-2, (원리)",127.2996844,36.60080977
Q,음식,Q01,한식,Q01A01,한식/백반/한정식,I56111,한식 음식점업,3611031000,연기면,"세종특별자치시 연기면 당산로 156, (연기리)",127.2792588,36.54724627
O,숙박,O02,모텔/여관/여인숙,O02A01,모텔/여관/여인숙,I55112,여관업,3611025000,조치원읍,"세종특별자치시 조치원읍 조치원1길 9, (원리)",127.297219,36.60152524
Q,음식,Q09,유흥주점,Q09A10,룸살롱/단란주점,I56211,일반유흥 주점업,3611034000,금남면,"세종특별자치시 금남면 대평시장2길 19, (용포리)",127.2823344,36.46699317
F,생활서비스,F01,이/미용/건강,F01A04,남성미용실,S96111,이용업,3611034000,금남면,"세종특별자치시 금남면 용포로 87-16, (용포리)",127.2807033,36.46721767
F,생활서비스,F01,이/미용/건강,F01A01,여성미용실,S96112,두발미용업,3611025000,조치원읍,"세종특별자치시 조치원읍 충현로 73-1, (죽림리)",127.2964607,36.59517627
F,생활서비스,F01,이/미용/건강,F01A01,여성미용실,S96112,두발미용업,3611051000,한솔동,"세종특별자치시 누리로 54, (한솔동, 첫마을푸르지오5단지)",127.251953,36.47613428
Q,음식,Q05,닭/오리요리,Q05A08,후라이드/양념치킨,I56193,치킨 전문점,3611053000,아름동,"세종특별자치시 아름남1길 8, (아름동)",127.2490615,36.50864115
Q,음식,Q13,음식배달서비스,Q13A01,야식집,I56132,이동 음식업,3611025000,조치원읍,"세종특별자치시 조치원읍 돌간길 56, (신안리)",127.2886094,36.61768683
O,숙박,O02,모텔/여관/여인숙,O02A01,모텔/여관/여인숙,I55112,여관업,3611025000,조치원읍,"세종특별자치시 조치원읍 안터1길 1, (신안리)",127.2882653,36.62593079
F,생활서비스,F01,이/미용/건강,F01A01,여성미용실,S96112,두발미용업,3611025000,조치원읍,"세종특별자치시 조치원읍 새내11길 15, (원리)",127.2970804,36.60202008
Q,음식,Q01,한식,Q01A01,한식/백반/한정식,I56111,한식 음식점업,3611025000,조치원읍,"세종특별자치시 조치원읍 도장말길 30, (죽림리, 조치원신동아파밀리에)",127.2974675,36.59014445
Q,음식,Q01,한식,Q01A01,한식/백반/한정식,I56111,한식 음식점업,3611051000,한솔동,"세종특별자치시 노을3로 25, (한솔동)",127.259329,36.48084862
Q,음식,Q12,커피점/카페,Q12A01,커피전문점/카페/다방,I56220,비알콜 음료점업,3611031000,연기면,"세종특별자치시 연기면 당산로 118, (연기리)",127.2767966,36.54417625
Q,음식,Q12,커피점/카페,Q12A01,커피전문점/카페/다방,I56220,비알콜 음료점업,3611035000,장군면,"세종특별자치시 장군면 장척로 411, (도계리)",127.2057443,36.49787047
F,생활서비스,F01,이/미용/건강,F01A01,여성미용실,S96112,두발미용업,3611025000,조치원읍,"세종특별자치시 조치원읍 세종로 2511, (서창리)",127.2910008,36.61169005
Q,음식,Q10,별식/퓨전요리,Q10A05,순대전문점,I56111,한식 음식점업,3611025000,조치원읍,"세종특별자치시 조치원읍 새내로 87, (정리)",127.298175,36.59962932
Q,음식,Q12,커피점/카페,Q12A01,커피전문점/카페/다방,I56220,비알콜 음료점업,3611035000,장군면,"세종특별자치시 장군면 장척로 563, (봉안리)",127.2203507,36.49948085
F,생활서비스,F01,이/미용/건강,F01A01,여성미용실,S96112,두발미용업,3611025000,조치원읍,세종특별자치시 세종특별자치시 조치원읍 조치원8길 10,127.3005193,36.60119318
Q,음식,Q08,제과제빵떡케익,Q08A01,제과점,I56191,제과점업,3611051000,한솔동,"세종특별자치시 나리로 38, (한솔동, 첫마을래미안7단지)",127.2556171,36.47456202
F,생활서비스,F02,세탁/가사서비스,F02A01,세탁소/빨래방,S96912,가정용 세탁업,3611025000,조치원읍,"세종특별자치시 조치원읍 도장말길 30, (죽림리, 조치원신동아파밀리에)",127.2974675,36.59014445
Q,음식,Q04,분식,Q04A01,라면김밥분식,I56194,분식 및 김밥 전문점,3611025000,조치원읍,"세종특별자치시 조치원읍 장안2길 5, (상리)",127.3025766,36.60111512
Q,음식,Q05,닭/오리요리,Q05A08,후라이드/양념치킨,I56193,치킨 전문점,3611025000,조치원읍,"세종특별자치시 조치원읍 도장말길 30, (죽림리, 조치원신동아파밀리에)",127.2974675,36.59014445
Q,음식,Q01,한식,Q01A02,갈비/삼겹살,I56111,한식 음식점업,3611025000,조치원읍,"세종특별자치시 조치원읍 도장말길 30, (죽림리, 조치원신동아파밀리에)",127.2974675,36.59014445
Q,음식,Q12,커피점/카페,Q12A01,커피전문점/카페/다방,I56220,비알콜 음료점업,3611038000,전동면,"세종특별자치시 전동면 신송로 217, (송성리)",127.210081,36.67278686
Q,음식,Q02,중식,Q02A01,탕수육전문점,I56112,중식 음식점업,3611025000,조치원읍,"세종특별자치시 조치원읍 섭골길 35-1, (서창리)",127.2895273,36.61390725
Q,음식,Q05,닭/오리요리,Q05A08,후라이드/양념치킨,I56193,치킨 전문점,3611025000,조치원읍,"세종특별자치시 조치원읍 도원1로 16, (신흥리, 신흥대우푸르지오)",127.289886,36.59184787
F,생활서비스,F02,세탁/가사서비스,F02A05,청소/소독,,,3611025000,조치원읍,"세종특별자치시 조치원읍 번영1길 19, (남리)",127.2994055,36.59580643
Q,음식,Q01,한식,Q01A01,한식/백반/한정식,I56111,한식 음식점업,3611025000,조치원읍,"세종특별자치시 조치원읍 새내8길 20, (정리)",127.2995532,36.59924991
Q,음식,Q12,커피점/카페,Q12A01,커피전문점/카페/다방,I56220,비알콜 음료점업,3611025000,조치원읍,"세종특별자치시 조치원읍 조치원9길 26, (평리)",127.3026902,36.60338682
Q,음식,Q04,분식,Q04A01,라면김밥분식,I56194,분식 및 김밥 전문점,3611025000,조치원읍,"세종특별자치시 조치원읍 새내로 152-2, (교리)",127.2975627,36.60552862
Q,음식,Q01,한식,Q01A01,한식/백반/한정식,I56111,한식 음식점업,3611034000,금남면,"세종특별자치시 금남면 성덕영곡길 165-10, (영곡리)",127.265496,36.45292173
Q,음식,Q09,유흥주점,Q09A01,호프/맥주,I56219,기타 주점업,3611051500,새롬동,"세종특별자치시 한누리대로 193, (나성동)",127.2605003,36.48207253
Q,음식,Q12,커피점/카페,Q12A01,커피전문점/카페/다방,I56220,비알콜 음료점업,3611025000,조치원읍,"세종특별자치시 조치원읍 도원2로 39, (신흥리)",127.2870171,36.59270491
O,숙박,O02,모텔/여관/여인숙,O02A01,모텔/여관/여인숙,I55112,여관업,3611038000,전동면,"세종특별자치시 전동면 소죽골길 22, (심중리)",127.2788822,36.64419577
O,숙박,O02,모텔/여관/여인숙,O02A01,모텔/여관/여인숙,I55112,여관업,3611038000,전동면,"세종특별자치시 전동면 소죽골길 26, (심중리)",127.2788684,36.64447506
Q,음식,Q01,한식,Q01A03,곱창/양구이전문,I56111,한식 음식점업,3611025000,조치원읍,"세종특별자치시 조치원읍 행복길 11, (침산리)",127.2909982,36.60342599
Q,음식,Q12,커피점/카페,Q12A01,커피전문점/카페/다방,I56220,비알콜 음료점업,3611051500,새롬동,"세종특별자치시 한누리대로 193, (나성동)",127.2605003,36.48207253
Q,음식,Q03,일식/수산물,Q03A07,민물장어전문,I56111,한식 음식점업,3611051000,한솔동,"세종특별자치시 노을3로 25, (한솔동)",127.259329,36.48084862
F,생활서비스,F01,이/미용/건강,F01A01,여성미용실,S96112,두발미용업,3611025000,조치원읍,"세종특별자치시 조치원읍 새내로 133, (교리)",127.2973329,36.60375189
Q,음식,Q01,한식,Q01A01,한식/백반/한정식,I56111,한식 음식점업,3611051000,한솔동,"세종특별자치시 노을3로 25, (한솔동)",127.259329,36.48084862
Q,음식,Q01,한식,Q01A01,한식/백반/한정식,I56111,한식 음식점업,3611051000,한솔동,"세종특별자치시 노을3로 25, (한솔동)",127.259329,36.48084862
F,생활서비스,F01,이/미용/건강,F01A01,여성미용실,S96112,두발미용업,3611025000,조치원읍,"세종특별자치시 조치원읍 새내14길 50, (교리)",127.3004443,36.60330156
Q,음식,Q01,한식,Q01A05,해장국/감자탕,I56111,한식 음식점업,3611051000,한솔동,"세종특별자치시 노을3로 19, 201동  (한솔동, 첫마을퍼스트프라임2단지)",127.2600121,36.4817721
F,생활서비스,F01,이/미용/건강,F01A01,여성미용실,S96112,두발미용업,3611025000,조치원읍,"세종특별자치시 조치원읍 섭골길 59, (신안리, 이편한세상세종)",127.2860597,36.61534648
Q,음식,Q05,닭/오리요리,Q05A08,후라이드/양념치킨,I56193,치킨 전문점,3611033000,부강면,"세종특별자치시 부강면 부강로 41, (부강리)",127.3657202,36.52959594
Q,음식,Q01,한식,Q01A99,기타고기요리,I56111,한식 음식점업,3611025000,조치원읍,세종특별자치시 세종특별자치시 조치원읍 행복11길 10-1,127.2926556,36.60431
D,소매,D10,건강/미용식품,D10A07,건강원,G47216,건강보조식품 소매업,3611025000,조치원읍,"세종특별자치시 조치원읍 충현로 56, (죽림리)",127.2984919,36.59425999
Q,음식,Q01,한식,Q01A01,한식/백반/한정식,I56111,한식 음식점업,3611034000,금남면,"세종특별자치시 금남면 두만산동길 152-10, (두만리)",127.2954434,36.42767853
Q,음식,Q01,한식,Q01A01,한식/백반/한정식,I56111,한식 음식점업,3611051000,한솔동,"세종특별자치시 누리로 32, (한솔동)",127.2525306,36.47757084
Q,음식,Q01,한식,Q01A01,한식/백반/한정식,I56111,한식 음식점업,3611051500,새롬동,"세종특별자치시 한누리대로 205, (나성동)",127.2599232,36.48290709
Q,음식,Q07,패스트푸드,Q07A01,피자전문,I56192,"피자, 햄버거, 샌드위치 및 유사 음식점업",3611025000,조치원읍,"세종특별자치시 조치원읍 조치원로 8, (원리)",127.2977038,36.60105947
Q,음식,Q05,닭/오리요리,Q05A01,삼계탕전문,I56111,한식 음식점업,3611038000,전동면,"세종특별자치시 전동면 운주산로 226, (심중리)",127.2762683,36.64507211
Q,음식,Q03,일식/수산물,Q03A08,매운탕전문,I56111,한식 음식점업,3611036000,연서면,"세종특별자치시 연서면 세종로 2156-15, (월하리)",127.2936621,36.57850538
Q,음식,Q10,별식/퓨전요리,Q10A01,죽전문점,I56111,한식 음식점업,3611033000,부강면,"세종특별자치시 부강면 부강로 26-5, (부강리)",127.3673018,36.52873917
D,소매,D16,화장품소매,D16A01,화장품판매점,G47813,화장품 및 방향제 소매업,3611025000,조치원읍,"세종특별자치시 조치원읍 새내로 102, (원리)",127.2984312,36.60096462
Q,음식,Q01,한식,Q01A01,한식/백반/한정식,I56111,한식 음식점업,3611035000,장군면,"세종특별자치시 장군면 정계길 105, (대교리)",127.2204491,36.51638831
D,소매,D03,종합소매점,D03B10,할인점,G47119,기타 대형 종합 소매업,3611051000,한솔동,"세종특별자치시 금송로 687, (가람동)",127.2509879,36.47089212
Q,음식,Q09,유흥주점,Q09A01,호프/맥주,I56219,기타 주점업,3611025000,조치원읍,"세종특별자치시 조치원읍 문화로 5-2, (원리)",127.3008903,36.60218669
Q,음식,Q09,유흥주점,Q09A01,호프/맥주,I56219,기타 주점업,3611025000,조치원읍,"세종특별자치시 조치원읍 신안새동네길 31, (신안리)",127.2904835,36.6144717
Q,음식,Q12,커피점/카페,Q12A01,커피전문점/카페/다방,I56220,비알콜 음료점업,3611036000,연서면,"세종특별자치시 연서면 대첩로 148-5, (월하리)",127.2797491,36.59550002
Q,음식,Q10,별식/퓨전요리,Q10A02,샤브샤브전문,I56111,한식 음식점업,3611025000,조치원읍,"세종특별자치시 조치원읍 행복10길 9, (침산리)",127.291137,36.60413876
F,생활서비스,F01,이/미용/건강,F01A01,여성미용실,S96112,두발미용업,3611025000,조치원읍,"세종특별자치시 조치원읍 새내로 127, (교리)",127.2976171,36.60323086
Q,음식,Q12,커피점/카페,Q12A01,커피전문점/카페/다방,I56220,비알콜 음료점업,3611051500,새롬동,"세종특별자치시 한누리대로 165, (나성동)",127.2620271,36.47993707
N,관광/여가/오락,N02,무도/유흥/가무,N02A01,노래방,R91223,노래연습장 운영업,3611025000,조치원읍,"세종특별자치시 조치원읍 행복6길 26, (침산리)",127.292189,36.60521745
Q,음식,Q01,한식,Q01A01,한식/백반/한정식,I56111,한식 음식점업,3611051500,새롬동,"세종특별자치시 한누리대로 205, (나성동)",127.2599232,36.48290709
D,소매,D21,철물/난방/건설자재소매,D21A06,철물/건설자재소매,G47511,철물 및 난방용구 소매업,3611025000,조치원읍,"세종특별자치시 조치원읍 장안길 20, (정리)",127.3000526,36.59964938
D,소매,D05,의복의류,D05A02,캐쥬얼/스포츠의류,G47416,셔츠 및 기타 의복 소매업,3611025000,조치원읍,"세종특별자치시 조치원읍 조치원로 23, (원리)",127.2993629,36.60175415
D,소매,D05,의복의류,D05A01,일반의류,G47416,셔츠 및 기타 의복 소매업,3611025000,조치원읍,"세종특별자치시 조치원읍 조치원4길 5, (원리)",127.2987875,36.60111992
D,소매,D07,가정/주방/인테리어,D07A03,침구/수예품,G47411,가정용 직물제품 소매업,3611025000,조치원읍,"세종특별자치시 조치원읍 장안로 6-1, (원리)",127.3010557,36.60119633
D,소매,D03,종합소매점,D03B10,할인점,G47119,기타 대형 종합 소매업,3611051000,한솔동,"세종특별자치시 금송로 687, (가람동)",127.2509879,36.47089212
D,소매,D18,사진/광학/정밀기기소매,D18A02,핸드폰소매,G47312,통신기기 소매업,3611025000,조치원읍,"세종특별자치시 조치원읍 새내12길 8, (원리)",127.2983978,36.60218105
Q,음식,Q01,한식,Q01A09,설렁탕집,I56111,한식 음식점업,3611051500,새롬동,"세종특별자치시 한누리대로 165, (나성동)",127.2620271,36.47993707
D,소매,D18,사진/광학/정밀기기소매,D18A02,핸드폰소매,G47312,통신기기 소매업,3611025000,조치원읍,"세종특별자치시 조치원읍 조치원로 30, (원리)",127.2999256,36.60133389
R,학문/교육,R01,학원-보습교습입시,R01A01,학원-입시,P85501,일반 교과 학원,3611025000,조치원읍,"세종특별자치시 조치원읍 행복길 17, (침산리)",127.2916906,36.60349319
F,생활서비스,F01,이/미용/건강,F01A02,발/네일케어,S96119,기타미용업,3611025000,조치원읍,"세종특별자치시 조치원읍 행복3길 18, (침산리)",127.2919095,36.60400818
Q,음식,Q09,유흥주점,Q09A01,호프/맥주,I56219,기타 주점업,3611051500,새롬동,"세종특별자치시 한누리대로 207, (나성동)",127.2596973,36.48318507
N,관광/여가/오락,N08,경마/경륜/성인오락,N08A01,게임룸,R91249,기타 갬블링 및 베팅업,3611025000,조치원읍,"세종특별자치시 조치원읍 으뜸길 226, (원리)",127.2970613,36.60165949
D,소매,D01,음/식료품소매,D01A03,정육점,G47212,육류 소매업,3611025000,조치원읍,"세종특별자치시 조치원읍 조치원8길 11, (원리)",127.3008427,36.60127619
Q,음식,Q01,한식,Q01A01,한식/백반/한정식,I56111,한식 음식점업,3611025000,조치원읍,"세종특별자치시 조치원읍 새내12길 6, (원리)",127.2981631,36.60217967
R,학문/교육,R04,학원-어학,R04A01,학원-외국어/어학,P85502,외국어학원,3611025000,조치원읍,"세종특별자치시 조치원읍 행복4길 14, (침산리)",127.2914037,36.60431158
Q,음식,Q01,한식,Q01A01,한식/백반/한정식,I56111,한식 음식점업,3611025000,조치원읍,"세종특별자치시 조치원읍 조치원로 26, (원리)",127.2995681,36.60131376
Q,음식,Q01,한식,Q01A01,한식/백반/한정식,I56111,한식 음식점업,3611033000,부강면,"세종특별자치시 부강면 부촌길 17, (부강리)",127.3676883,36.52789407
O,숙박,O02,모텔/여관/여인숙,O02A01,모텔/여관/여인숙,I55112,여관업,3611038000,전동면,"세종특별자치시 전동면 소죽골길 24, (심중리)",127.2784879,36.64450881
Q,음식,Q14,기타음식업,Q14A01,구내식당/자급식음식점,I56120,기관구내식당업,3611051000,한솔동,"세종특별자치시 금송로 687, (가람동)",127.2509879,36.47089212
N,관광/여가/오락,N08,경마/경륜/성인오락,N08A01,게임룸,R91249,기타 갬블링 및 베팅업,3611025000,조치원읍,"세종특별자치시 조치원읍 으뜸길 228, (원리)",127.2970495,36.6017225
F,생활서비스,F07,물품기기대여,F07A04,도서/만화대여,L69291,서적 임대업,3611025000,조치원읍,"세종특별자치시 조치원읍 으뜸길 222, (원리)",127.2969841,36.60154188
F,생활서비스,F01,이/미용/건강,F01A02,발/네일케어,S96119,기타미용업,3611025000,조치원읍,"세종특별자치시 조치원읍 조치원5길 19, (원리)",127.2990906,36.60220315
D,소매,D05,의복의류,D05A01,일반의류,G47416,셔츠 및 기타 의복 소매업,3611025000,조치원읍,"세종특별자치시 조치원읍 조치원7길 12, (원리)",127.300701,36.60210447
Q,음식,Q01,한식,Q01A01,한식/백반/한정식,I56111,한식 음식점업,3611034000,금남면,"세종특별자치시 금남면 대박길 9, (대박리)",127.3442595,36.4790474
R,학문/교육,R01,학원-보습교습입시,R01A01,학원-입시,P85501,일반 교과 학원,3611025000,조치원읍,"세종특별자치시 조치원읍 충현로 193, (침산리)",127.2939176,36.60566028
Q,음식,Q01,한식,Q01A01,한식/백반/한정식,I56111,한식 음식점업,3611025000,조치원읍,"세종특별자치시 조치원읍 조치원5길 12-16, (원리)",127.3001323,36.60195694
Q,음식,Q09,유흥주점,Q09A01,호프/맥주,I56219,기타 주점업,3611025000,조치원읍,"세종특별자치시 조치원읍 행복4길 13-1, (침산리)",127.2914909,36.60455542
D,소매,D18,사진/광학/정밀기기소매,D18A02,핸드폰소매,G47312,통신기기 소매업,3611025000,조치원읍,"세종특별자치시 조치원읍 조치원로 16, (원리)",127.2984633,36.60111801
D,소매,D05,의복의류,D05A05,아동복판매,G47416,셔츠 및 기타 의복 소매업,3611025000,조치원읍,세종특별자치시 세종특별자치시 조치원읍 조치원8길 10,127.3005193,36.60119318
N,관광/여가/오락,N01,PC/오락/당구/볼링등,N01A08,전자오락실,R91221,전자 게임장 운영업,3611025000,조치원읍,"세종특별자치시 조치원읍 행복4길 21, (침산리)",127.2920603,36.60462189
F,생활서비스,F13,기타서비스업,F13A01,사업경영상담,M71531,경영컨설팅업,3611037000,전의면,"세종특별자치시 전의면 운주산로 1510, (유천리)",127.1853258,36.69694314
D,소매,D23,자동차/자동차용품,D23A02,중고자동차판매,G45120,중고 자동차 판매업,3611031000,연기면,"세종특별자치시 연기면 태천1길 137, (수산리)",127.2305292,36.55039343
D,소매,D18,사진/광학/정밀기기소매,D18A02,핸드폰소매,G47312,통신기기 소매업,3611025000,조치원읍,"세종특별자치시 조치원읍 조치원로 22, (원리)",127.2991557,36.60118517
N,관광/여가/오락,N07,놀이/여가/취미,N07A11,기타오락관련산업,R91299,그외 기타 분류안된 오락관련 서비스업,3611025000,조치원읍,"세종특별자치시 조치원읍 조치원7길 27, (교리)",127.3000801,36.60278574
F,생활서비스,F01,이/미용/건강,F01A01,여성미용실,S96112,두발미용업,3611051500,새롬동,"세종특별자치시 한누리대로 205, (나성동)",127.2599232,36.48290709
F,생활서비스,F15,주택수리,F15A03,배관난방보일러,F42201,배관 및 냉·난방 공사업,3611034000,금남면,"세종특별자치시 금남면 용포로 50, (용포리)",127.2807639,36.46307239
N,관광/여가/오락,N07,놀이/여가/취미,N07A11,기타오락관련산업,R91299,그외 기타 분류안된 오락관련 서비스업,3611036000,연서면,"세종특별자치시 연서면 복골길 45-17, (고복리)",127.2456779,36.61561139
R,학문/교육,R09,학원기타,R09A01,학원(종합),P85501,일반 교과 학원,3611025000,조치원읍,"세종특별자치시 조치원읍 군청로 86, (죽림리)",127.2938719,36.59226808
D,소매,D08,사무/문구/컴퓨터,D08A01,사무/문구용품,G47612,문구용품 소매업,3611034000,금남면,"세종특별자치시 금남면 용포로 97-12, (용포리)",127.2808435,36.46774122
L,부동산,L03,분양,L03A04,건물분양-종합,,,3611036000,연서면,"세종특별자치시 연서면 도신고복로 527, (쌍류리)",127.2224912,36.59900642
D,소매,D10,건강/미용식품,D10A07,건강원,G47216,건강보조식품 소매업,3611025000,조치원읍,"세종특별자치시 조치원읍 터미널안길 63, (상리)",127.3030792,36.60115411
Q,음식,Q12,커피점/카페,Q12A01,커피전문점/카페/다방,I56220,비알콜 음료점업,3611035000,장군면,"세종특별자치시 장군면 금송로 210, (금암리)",127.2216586,36.4379089
D,소매,D04,취미/오락관련소매,D04A01,완구점,G47640,"게임용구, 인형 및 장난감 소매업",3611037000,전의면,"세종특별자치시 전의면 운주산로 1188-2, (읍내리)",127.205224,36.67946841
D,소매,D15,가구소매,D15A01,일반가구소매,G47520,가구 소매업,3611034000,금남면,"세종특별자치시 금남면 성강길 257-9, (성강리)",127.248125,36.42647068
F,생활서비스,F01,이/미용/건강,F01A01,여성미용실,S96112,두발미용업,3611025000,조치원읍,"세종특별자치시 조치원읍 조치원로 23, (원리)",127.2993523,36.60170001
Q,음식,Q05,닭/오리요리,Q05A08,후라이드/양념치킨,I56193,치킨 전문점,3611025000,조치원읍,"세종특별자치시 조치원읍 새내로 136, (교리)",127.2977996,36.60406105
D,소매,D06,가방/신발/액세서리,D06A07,양품점,G47419,"기타 섬유, 직물 및 의복액세서리 소매업",3611037000,전의면,"세종특별자치시 전의면 만세길 21, (읍내리)",127.2042221,36.67898409
Q,음식,Q04,분식,Q04A02,국수/만두/칼국수,I56194,분식 및 김밥 전문점,3611035000,장군면,"세종특별자치시 장군면 장기초교길 54, (도계리)",127.2103419,36.49469265
Q,음식,Q06,양식,Q06A01,정통양식/경양식,I56114,서양식 음식점업,3611035000,장군면,"세종특별자치시 장군면 장척로 565, (봉안리)",127.2205189,36.49940985
L,부동산,L03,분양,L03A04,건물분양-종합,,,3611025000,조치원읍,"세종특별자치시 조치원읍 문화4길 8, (침산리)",127.2886574,36.60028485
D,소매,D03,종합소매점,D03A01,편의점,G47122,체인화 편의점,3611025000,조치원읍,"세종특별자치시 조치원읍 조치원5길 18, (원리)",127.2993138,36.60224952
Q,음식,Q04,분식,Q04A02,국수/만두/칼국수,I56194,분식 및 김밥 전문점,3611025000,조치원읍,"세종특별자치시 조치원읍 장안길 97-7, (남리)",127.3010318,36.59641078
D,소매,D10,건강/미용식품,D10A08,금연관련제품판매,G47216,건강보조식품 소매업,3611025000,조치원읍,"세종특별자치시 조치원읍 새내로 127, (교리)",127.2976171,36.60323086
Q,음식,Q01,한식,Q01A99,기타고기요리,I56111,한식 음식점업,3611035000,장군면,"세종특별자치시 장군면 장척로 408-3, (도계리)",127.2060296,36.49725954
R,학문/교육,R05,학원-음악미술무용,R05A02,피아노/바이올린/기타,P85620,예술 학원,3611033000,부강면,"세종특별자치시 부강면 부강3길 29-11, (부강리, 청솔아파트)",127.3640099,36.52982115
L,부동산,L01,부동산중개,L01A01,부동산중개,L68221,부동산 자문 및 중개업,3611034000,금남면,"세종특별자치시 금남면 용포로 73, (용포리)",127.2809337,36.46521833
L,부동산,L03,분양,L03A04,건물분양-종합,,,3611051500,새롬동,"세종특별자치시 한누리대로 205, (나성동)",127.2599232,36.48290709
Q,음식,Q01,한식,Q01A01,한식/백반/한정식,I56111,한식 음식점업,3611035000,장군면,"세종특별자치시 장군면 대학길 214-3, (금암리)",127.2120607,36.45723128
R,학문/교육,R07,학원-예능취미체육,R07A23,유도장,P85611,스포츠 교육기관,3611051500,새롬동,"세종특별자치시 한누리대로 205, (나성동)",127.2599232,36.48290709
N,관광/여가/오락,N02,무도/유흥/가무,N02A01,노래방,R91223,노래연습장 운영업,3611034000,금남면,"세종특별자치시 금남면 용포로 91-1, (용포리)",127.2814649,36.46690682
L,부동산,L01,부동산중개,L01A01,부동산중개,L68221,부동산 자문 및 중개업,3611034000,금남면,"세종특별자치시 금남면 용포중앙2길 13-1, (용포리)",127.2826056,36.46662529
Q,음식,Q09,유흥주점,Q09A02,소주방/포장마차,I56219,기타 주점업,3611035000,장군면,"세종특별자치시 장군면 봉안산소골길 21, (봉안리)",127.2219678,36.5007441
Q,음식,Q12,커피점/카페,Q12A01,커피전문점/카페/다방,I56220,비알콜 음료점업,3611025000,조치원읍,"세종특별자치시 조치원읍 으뜸길 215, (원리)",127.2963292,36.60350264
D,소매,D03,종합소매점,D03A01,편의점,G47122,체인화 편의점,3611034000,금남면,"세종특별자치시 금남면 용포로 110, (용포리)",127.2816735,36.46848522
R,학문/교육,R05,학원-음악미술무용,R05A02,피아노/바이올린/기타,P85620,예술 학원,3611025000,조치원읍,"세종특별자치시 조치원읍 장안1길 25, (명리)",127.3021835,36.60007643
D,소매,D21,철물/난방/건설자재소매,D21A08,셔터/새시판매,G47511,철물 및 난방용구 소매업,3611035000,장군면,"세종특별자치시 장군면 봉안산소골길 4-7, (봉안리)",127.221712,36.4995348
Q,음식,Q02,중식,Q02A01,탕수육전문점,I56112,중식 음식점업,3611035000,장군면,"세종특별자치시 장군면 대학길 194, (금암리)",127.2114321,36.45540666
F,생활서비스,F01,이/미용/건강,F01A04,남성미용실,S96111,이용업,3611035000,장군면,"세종특별자치시 장군면 장척로 415, (도계리)",127.2063569,36.49800071
L,부동산,L03,분양,L03A04,건물분양-종합,,,3611034000,금남면,"세종특별자치시 금남면 금남구즉로 1, (용포리)",127.2818981,36.46832436
L,부동산,L01,부동산중개,L01A01,부동산중개,L68221,부동산 자문 및 중개업,3611035000,장군면,"세종특별자치시 장군면 장척로 436, (도계리)",127.2082667,36.49899573
D,소매,D18,사진/광학/정밀기기소매,D18A04,안경원,G47822,안경 소매업,3611051000,한솔동,"세종특별자치시 금송로 687, (가람동)",127.2509879,36.47089212
Q,음식,Q12,커피점/카페,Q12A01,커피전문점/카페/다방,I56220,비알콜 음료점업,3611051000,한솔동,"세종특별자치시 금송로 687, (가람동)",127.2509879,36.47089212
D,소매,D24,중고품소매/교환,D24A02,재활용/고물수집,G47869,기타 중고상품 소매업,3611025000,조치원읍,"세종특별자치시 조치원읍 새내6길 20, (남리)",127.299763,36.59829587
F,생활서비스,F15,주택수리,F15A02,미장타일도배도장,,,3611025000,조치원읍,"세종특별자치시 조치원읍 새내로 76, (정리)",127.2987311,36.59870435
Q,음식,Q01,한식,Q01A01,한식/백반/한정식,I56111,한식 음식점업,3611051000,한솔동,"세종특별자치시 노을3로 80, (한솔동)",127.25553,36.4789955
D,소매,D01,음/식료품소매,D01A13,청과물소매,G47214,과실 및 채소 소매업,3611038000,전동면,"세종특별자치시 전동면 운주산로 226, (심중리)",127.2762136,36.6449366
D,소매,D15,가구소매,D15A01,일반가구소매,G47520,가구 소매업,3611034000,금남면,"세종특별자치시 금남면 광중새터말길 57-1, (달전리)",127.3526119,36.46503383
R,학문/교육,R09,학원기타,R09A01,학원(종합),P85501,일반 교과 학원,3611025000,조치원읍,"세종특별자치시 조치원읍 새내로 133, (교리)",127.2973329,36.60375189
Q,음식,Q01,한식,Q01A99,기타고기요리,I56111,한식 음식점업,3611035000,장군면,"세종특별자치시 장군면 장척로 477, (대교리)",127.2119367,36.50143529
D,소매,D05,의복의류,D05A09,남성의류전문점,,,3611052000,도담동,"세종특별자치시 절재로 154, (어진동)",127.2588522,36.50746771
N,관광/여가/오락,N08,경마/경륜/성인오락,N08A01,게임룸,R91249,기타 갬블링 및 베팅업,3611034000,금남면,"세종특별자치시 금남면 용포로 90, (용포리)",127.2817345,36.46670117
D,소매,D08,사무/문구/컴퓨터,D08A01,사무/문구용품,G47612,문구용품 소매업,3611051500,새롬동,"세종특별자치시 한누리대로 205, (나성동)",127.2599232,36.48290709
F,생활서비스,F14,자동차/이륜차,F14A03,오토바이판매/수리,,,3611035000,장군면,"세종특별자치시 장군면 장기초교길 6, (도계리)",127.2066196,36.49741667
L,부동산,L01,부동산중개,L01A01,부동산중개,L68221,부동산 자문 및 중개업,3611034000,금남면,"세종특별자치시 금남면 용포로 106, (용포리)",127.2820127,36.4680006
D,소매,D08,사무/문구/컴퓨터,D08A01,사무/문구용품,G47612,문구용품 소매업,3611025000,조치원읍,"세종특별자치시 조치원읍 새내로 133, (교리)",127.2973329,36.60375189
D,소매,D15,가구소매,D15A01,일반가구소매,G47520,가구 소매업,3611036000,연서면,"세종특별자치시 연서면 세종로 1899, (봉암리)",127.2813689,36.55940735
Q,음식,Q01,한식,Q01A01,한식/백반/한정식,I56111,한식 음식점업,3611025000,조치원읍,"세종특별자치시 조치원읍 터미널안길 63, (상리)",127.3030792,36.60115411
F,생활서비스,F01,이/미용/건강,F01A02,발/네일케어,S96119,기타미용업,3611025000,조치원읍,"세종특별자치시 조치원읍 조치원7길 18, (원리)",127.3004968,36.60244573
D,소매,D05,의복의류,D05A09,남성의류전문점,,,3611036000,연서면,"세종특별자치시 연서면 세종로 2085, (월하리)",127.290467,36.57354778
Q,음식,Q12,커피점/카페,Q12A01,커피전문점/카페/다방,I56220,비알콜 음료점업,3611036000,연서면,"세종특별자치시 연서면 세종로 2085, (월하리)",127.290467,36.57354778
L,부동산,L01,부동산중개,L01A01,부동산중개,L68221,부동산 자문 및 중개업,3611034000,금남면,"세종특별자치시 금남면 용포로 83, (용포리)",127.2812603,36.4661035
D,소매,D07,가정/주방/인테리어,D07A17,주방가구판매,G47520,가구 소매업,3611031000,연기면,"세종특별자치시 연기면 세종로 1802, (연기리)",127.277178,36.55119901
Q,음식,Q01,한식,Q01A16,보리밥전문,I56111,한식 음식점업,3611025000,조치원읍,"세종특별자치시 조치원읍 행복13길 10, (침산리)",127.2939173,36.60446168
Q,음식,Q09,유흥주점,Q09A01,호프/맥주,I56219,기타 주점업,3611025000,조치원읍,"세종특별자치시 조치원읍 도장말길 30, (죽림리, 조치원신동아파밀리에)",127.2974675,36.59014445
L,부동산,L01,부동산중개,L01A01,부동산중개,L68221,부동산 자문 및 중개업,3611031000,연기면,"세종특별자치시 연기면 당산로 197, (연기리)",127.2778634,36.55077058
Q,음식,Q01,한식,Q01A01,한식/백반/한정식,I56111,한식 음식점업,3611036000,연서면,"세종특별자치시 연서면 세종로 2085, (월하리)",127.290467,36.57354778
L,부동산,L01,부동산중개,L01A01,부동산중개,L68221,부동산 자문 및 중개업,3611036000,연서면,"세종특별자치시 연서면 세종로 2085, (월하리)",127.290467,36.57354778
Q,음식,Q01,한식,Q01A01,한식/백반/한정식,I56111,한식 음식점업,3611051500,새롬동,"세종특별자치시 한누리대로 205, (나성동)",127.2599232,36.48290709
L,부동산,L03,분양,L03A04,건물분양-종합,,,3611051500,새롬동,"세종특별자치시 한누리대로 205, (나성동)",127.2599232,36.48290709
D,소매,D16,화장품소매,D16A02,향수전문점,G47813,화장품 및 방향제 소매업,3611052000,도담동,"세종특별자치시 절재로 154, (어진동)",127.2588522,36.50746771
L,부동산,L01,부동산중개,L01A01,부동산중개,L68221,부동산 자문 및 중개업,3611025000,조치원읍,"세종특별자치시 조치원읍 허만석로 21, (번암리)",127.294134,36.58434801
D,소매,D06,가방/신발/액세서리,D06A01,신발소매,G47420,신발 소매업,3611052000,도담동,"세종특별자치시 절재로 154, (어진동)",127.2588522,36.50746771
D,소매,D03,종합소매점,D03A02,수퍼마켓,G47121,슈퍼마켓,3611036000,연서면,"세종특별자치시 연서면 세종로 2083, (월하리)",127.2902602,36.57294273
F,생활서비스,F05,인력/고용/용역알선,F05A02,인력공급/고용알선,,,3611025000,조치원읍,"세종특별자치시 조치원읍 새내2길 17, (남리)",127.2997875,36.59682704
D,소매,D03,종합소매점,D03A02,수퍼마켓,G47121,슈퍼마켓,3611025000,조치원읍,"세종특별자치시 조치원읍 도장말길 34, (죽림리)",127.296977,36.59000638
Q,음식,Q01,한식,Q01A14,추어탕전문,I56111,한식 음식점업,3611036000,연서면,"세종특별자치시 연서면 세종로 2085, (월하리)",127.290467,36.57354778
Q,음식,Q06,양식,Q06A01,정통양식/경양식,I56114,서양식 음식점업,3611035000,장군면,"세종특별자치시 장군면 장척로 565, (봉안리)",127.2205189,36.49940985
F,생활서비스,F01,이/미용/건강,F01A04,남성미용실,S96111,이용업,3611025000,조치원읍,"세종특별자치시 조치원읍 새내8길 72, (명리)",127.3024223,36.59962722
Q,음식,Q08,제과제빵떡케익,Q08A03,떡전문,I56191,제과점업,3611025000,조치원읍,"세종특별자치시 조치원읍 새내10길 21, (원리)",127.2994299,36.6005289
L,부동산,L01,부동산중개,L01A01,부동산중개,L68221,부동산 자문 및 중개업,3611025000,조치원읍,"세종특별자치시 조치원읍 도장말길 30, (죽림리, 조치원신동아파밀리에)",127.2974675,36.59014445
D,소매,D05,의복의류,D05A05,아동복판매,G47416,셔츠 및 기타 의복 소매업,3611052000,도담동,"세종특별자치시 절재로 154, (어진동)",127.2588522,36.50746771
F,생활서비스,F01,이/미용/건강,F01A01,여성미용실,S96112,두발미용업,3611037000,전의면,"세종특별자치시 전의면 읍내길 2, (읍내리)",127.2045749,36.67949111
R,학문/교육,R07,학원-예능취미체육,R07A14,학원-에어로빅,P85611,스포츠 교육기관,3611025000,조치원읍,"세종특별자치시 조치원읍 새내2길 17, (남리)",127.2997875,36.59682704
L,부동산,L01,부동산중개,L01A01,부동산중개,L68221,부동산 자문 및 중개업,3611034000,금남면,"세종특별자치시 금남면 용포로 95-1, (용포리)",127.2815623,36.46723185
F,생활서비스,F05,인력/고용/용역알선,F05A02,인력공급/고용알선,,,3611034000,금남면,"세종특별자치시 금남면 용포로 97-12, (용포리)",127.2808435,36.46774122
D,소매,D07,가정/주방/인테리어,D07A15,유리/페인트/철물건축자재,G47519,"페인트, 유리 및 기타 건설자재 소매업",3611025000,조치원읍,"세종특별자치시 조치원읍 새내10길 52, (정리)",127.301051,36.60048435
F,생활서비스,F12,광고/인쇄,F12A05,광고물제작-종합,C33910,간판 및 광고물 제조업,3611025000,조치원읍,"세종특별자치시 조치원읍 조치원4길 123, (남리)",127.2998744,36.59586326
Q,음식,Q03,일식/수산물,Q03A13,낙지/오징어,I56111,한식 음식점업,3611025000,조치원읍,"세종특별자치시 조치원읍 조치원4길 121, (남리)",127.299829,36.5959441
D,소매,D21,철물/난방/건설자재소매,D21A07,열쇠판매/수리,G47511,철물 및 난방용구 소매업,3611052000,도담동,"세종특별자치시 절재로 154, (어진동)",127.2588522,36.50746771
Q,음식,Q01,한식,Q01A01,한식/백반/한정식,I56111,한식 음식점업,3611034000,금남면,"세종특별자치시 금남면 대평시장1길 12, (용포리)",127.2820488,36.46650479
F,생활서비스,F05,인력/고용/용역알선,F05A02,인력공급/고용알선,,,3611025000,조치원읍,"세종특별자치시 조치원읍 충현로 43, (죽림리)",127.298045,36.59300468
F,생활서비스,F06,사진,F06A01,사진관,M73301,인물사진 및 행사용비디오 촬영업,3611025000,조치원읍,"세종특별자치시 조치원읍 세종로 2639, (신안리)",127.2880984,36.61976556
Q,음식,Q03,일식/수산물,Q03A05,해물찜/탕전문,I56111,한식 음식점업,3611025000,조치원읍,"세종특별자치시 조치원읍 행복12길 5, (침산리)",127.2932758,36.60371889
L,부동산,L01,부동산중개,L01A01,부동산중개,L68221,부동산 자문 및 중개업,3611036000,연서면,"세종특별자치시 연서면 세종로 2085, (월하리)",127.290467,36.57354778
Q,음식,Q01,한식,Q01A01,한식/백반/한정식,I56111,한식 음식점업,3611025000,조치원읍,"세종특별자치시 조치원읍 도장말길 30, (죽림리, 조치원신동아파밀리에)",127.2974675,36.59014445
D,소매,D01,음/식료품소매,D01A13,청과물소매,G47214,과실 및 채소 소매업,3611034000,금남면,"세종특별자치시 금남면 대평시장2길 2-2, (용포리)",127.2822339,36.46578492
Q,음식,Q08,제과제빵떡케익,Q08A03,떡전문,I56191,제과점업,3611025000,조치원읍,"세종특별자치시 조치원읍 새내10길 21, (원리)",127.2994299,36.6005289
R,학문/교육,R08,유아교육,R08A04,실내놀이터-유아,Q87210,보육시설 운영업,3611051000,한솔동,"세종특별자치시 금송로 687, (가람동)",127.2509879,36.47089212
D,소매,D25,기타판매업,D25A02,복권판매,R91241,복권발행 및 판매업,3611025000,조치원읍,"세종특별자치시 조치원읍 행복길 20, (침산리)",127.2917153,36.603241
Q,음식,Q05,닭/오리요리,Q05A06,옻닭전문,I56111,한식 음식점업,3611034000,금남면,"세종특별자치시 금남면 용포로 97-12, (용포리)",127.2808435,36.46774122
Q,음식,Q12,커피점/카페,Q12A01,커피전문점/카페/다방,I56220,비알콜 음료점업,3611034000,금남면,"세종특별자치시 금남면 성덕영곡길 168-5, (영곡리)",127.2637624,36.4533887
Q,음식,Q01,한식,Q01A01,한식/백반/한정식,I56111,한식 음식점업,3611025000,조치원읍,"세종특별자치시 조치원읍 장안1길 32, (명리)",127.3018828,36.59995751
L,부동산,L01,부동산중개,L01A01,부동산중개,L68221,부동산 자문 및 중개업,3611036000,연서면,"세종특별자치시 연서면 세종로 2130, (월하리)",127.2926225,36.57732764
Q,음식,Q08,제과제빵떡케익,Q08A04,떡/한과집,I56191,제과점업,3611051500,새롬동,"세종특별자치시 한누리대로 205, (나성동)",127.2599232,36.48290709
F,생활서비스,F14,자동차/이륜차,F14A03,오토바이판매/수리,,,3611037000,전의면,"세종특별자치시 전의면 운주산로 1184, (읍내리)",127.2055603,36.67940757
Q,음식,Q12,커피점/카페,Q12A01,커피전문점/카페/다방,I56220,비알콜 음료점업,3611035000,장군면,"세종특별자치시 장군면 장척로 399, (도계리)",127.2049935,36.49706338
D,소매,D07,가정/주방/인테리어,D07A03,침구/수예품,G47411,가정용 직물제품 소매업,3611052000,도담동,"세종특별자치시 절재로 154, (어진동)",127.2588522,36.50746771
D,소매,D07,가정/주방/인테리어,D07A05,정수기연수기,G47320,가전제품 소매업,3611052000,도담동,"세종특별자치시 절재로 154, (어진동)",127.2588522,36.50746771
D,소매,D26,시계/귀금속소매,D26A03,금은방,G47830,시계 및 귀금속 소매업,3611034000,금남면,"세종특별자치시 금남면 용포로 68, (용포리)",127.2811727,36.46471509
F,생활서비스,F15,주택수리,F15A04,유리창호,F42420,유리 및 창호 공사업,3611025000,조치원읍,"세종특별자치시 조치원읍 조치원4길 121, (남리)",127.299829,36.5959441
L,부동산,L01,부동산중개,L01A01,부동산중개,L68221,부동산 자문 및 중개업,3611051500,새롬동,"세종특별자치시 한누리대로 283, (나성동)",127.2562005,36.48940879
L,부동산,L01,부동산중개,L01A01,부동산중개,L68221,부동산 자문 및 중개업,3611036000,연서면,"세종특별자치시 연서면 당산로 402-1, (봉암리)",127.2856235,36.56686792
D,소매,D05,의복의류,D05A09,남성의류전문점,,,3611036000,연서면,"세종특별자치시 연서면 세종로 2085, (월하리)",127.290467,36.57354778
Q,음식,Q01,한식,Q01A01,한식/백반/한정식,I56111,한식 음식점업,3611025000,조치원읍,"세종특별자치시 조치원읍 새내6길 45, (정리)",127.3012792,36.59872833
F,생활서비스,F05,인력/고용/용역알선,F05A02,인력공급/고용알선,,,3611034000,금남면,"세종특별자치시 금남면 용포로 87-5, (용포리)",127.280989,36.46648038
L,부동산,L01,부동산중개,L01A01,부동산중개,L68221,부동산 자문 및 중개업,3611034000,금남면,"세종특별자치시 금남면 용포로 69, (용포리)",127.2809696,36.46495719
L,부동산,L01,부동산중개,L01A01,부동산중개,L68221,부동산 자문 및 중개업,3611031000,연기면,"세종특별자치시 연기면 세종로 1845, (보통리)",127.2784284,36.55487452
D,소매,D01,음/식료품소매,D01A09,식자재판매,G47219,기타 식료품 소매업,3611035000,장군면,"세종특별자치시 장군면 장기초교길 10, (도계리)",127.2068245,36.49703051
R,학문/교육,R05,학원-음악미술무용,R05A02,피아노/바이올린/기타,P85620,예술 학원,3611036000,연서면,"세종특별자치시 연서면 당산로 362-1, (봉암리)",127.2834844,36.56379997
D,소매,D03,종합소매점,D03A03,잡화점,G47190,그외 기타 종합 소매업,3611025000,조치원읍,"세종특별자치시 조치원읍 새내로 127, (교리)",127.2976171,36.60323086
L,부동산,L01,부동산중개,L01A01,부동산중개,L68221,부동산 자문 및 중개업,3611034000,금남면,"세종특별자치시 금남면 용포로 94-1, (용포리)",127.2818096,36.46703507
D,소매,D01,음/식료품소매,D01A04,닭집,G47212,육류 소매업,3611034000,금남면,"세종특별자치시 금남면 대평시장2길 2-2, (용포리)",127.2822339,36.46578492
Q,음식,Q05,닭/오리요리,Q05A08,후라이드/양념치킨,I56193,치킨 전문점,3611025000,조치원읍,"세종특별자치시 조치원읍 새내로 155, (교리)",127.2970471,36.6056878
F,생활서비스,F03,개인/가정용품수리,F03A01,개인/가정용품수리-종합,S95399,그외 기타 개인 및 가정용품 수리업,3611034000,금남면,"세종특별자치시 금남면 대평시장1길 6, (용포리)",127.2818976,36.46595413
F,생활서비스,F05,인력/고용/용역알선,F05A02,인력공급/고용알선,,,3611034000,금남면,"세종특별자치시 금남면 용포로 89, (용포리)",127.2814341,36.46661825
D,소매,D18,사진/광학/정밀기기소매,D18A04,안경원,G47822,안경 소매업,3611025000,조치원읍,"세종특별자치시 조치원읍 조치원로 36, (원리)",127.3007183,36.60142866
D,소매,D15,가구소매,D15A01,일반가구소매,G47520,가구 소매업,3611036000,연서면,"세종특별자치시 연서면 세종로 1899, (봉암리)",127.2813689,36.55940735
Q,음식,Q01,한식,Q01A01,한식/백반/한정식,I56111,한식 음식점업,3611025000,조치원읍,"세종특별자치시 조치원읍 장안2길 5, (상리)",127.3025766,36.60111512
D,소매,D05,의복의류,D05A09,남성의류전문점,,,3611052000,도담동,"세종특별자치시 절재로 154, (어진동)",127.2588522,36.50746771
D,소매,D05,의복의류,D05A09,남성의류전문점,,,3611052000,도담동,"세종특별자치시 절재로 154, (어진동)",127.2588522,36.50746771
L,부동산,L01,부동산중개,L01A01,부동산중개,L68221,부동산 자문 및 중개업,3611036000,연서면,"세종특별자치시 연서면 세종로 2109, (월하리)",127.2914531,36.5756805
L,부동산,L01,부동산중개,L01A01,부동산중개,L68221,부동산 자문 및 중개업,3611034000,금남면,"세종특별자치시 금남면 용포로 70, (용포리)",127.2812831,36.46484192
Q,음식,Q04,분식,Q04A02,국수/만두/칼국수,I56194,분식 및 김밥 전문점,3611036000,연서면,"세종특별자치시 연서면 세종로 2085, (월하리)",127.290467,36.57354778
F,생활서비스,F05,인력/고용/용역알선,F05A02,인력공급/고용알선,,,3611034000,금남면,"세종특별자치시 금남면 용포로 75, (용포리)",127.2808983,36.46543441
D,소매,D05,의복의류,D05A01,일반의류,G47416,셔츠 및 기타 의복 소매업,3611036000,연서면,"세종특별자치시 연서면 세종로 2085, (월하리)",127.290467,36.57354778
Q,음식,Q09,유흥주점,Q09A08,빠/카페/스탠드빠,I56211,일반유흥 주점업,3611051000,한솔동,"세종특별자치시 금송로 687, (가람동)",127.2509879,36.47089212
L,부동산,L01,부동산중개,L01A01,부동산중개,L68221,부동산 자문 및 중개업,3611025000,조치원읍,"세종특별자치시 조치원읍 새내로 150, (교리)",127.2975883,36.6051773
D,소매,D07,가정/주방/인테리어,D07A10,조명기구/전기용품,G47591,전기용품 및 조명장치 소매업,3611025000,조치원읍,세종특별자치시 세종특별자치시 조치원읍 충현로 94-4,127.2957864,36.59681248
Q,음식,Q01,한식,Q01A01,한식/백반/한정식,I56111,한식 음식점업,3611034000,금남면,"세종특별자치시 금남면 도남2길 12, (도남리, 금강의휴양림마을프로방스빌)",127.2344062,36.4391449
L,부동산,L01,부동산중개,L01A01,부동산중개,L68221,부동산 자문 및 중개업,3611025000,조치원읍,"세종특별자치시 조치원읍 충현로 73-1, (죽림리)",127.2964607,36.59517627
D,소매,D15,가구소매,D15A01,일반가구소매,G47520,가구 소매업,3611036000,연서면,"세종특별자치시 연서면 세종로 1899, (봉암리)",127.2813689,36.55940735
Q,음식,Q09,유흥주점,Q09A02,소주방/포장마차,I56219,기타 주점업,3611025000,조치원읍,"세종특별자치시 조치원읍 행복길 20, (침산리)",127.2917153,36.603241
Q,음식,Q10,별식/퓨전요리,Q10A01,죽전문점,I56111,한식 음식점업,3611025000,조치원읍,"세종특별자치시 조치원읍 조치원6길 27, (정리)",127.2997906,36.60019757
F,생활서비스,F13,기타서비스업,F13A03,상품포장,N75994,포장 및 충전업,3611025000,조치원읍,"세종특별자치시 조치원읍 새내10길 64, (명리)",127.3017108,36.60044315
N,관광/여가/오락,N03,연극/영화/극장,N03A06,연극/음악/예술관련기타,,,3611035000,장군면,"세종특별자치시 장군면 대학길 300, (금암리)",127.2097434,36.462407
Q,음식,Q04,분식,Q04A03,떡볶이전문,I56194,분식 및 김밥 전문점,3611025000,조치원읍,"세종특별자치시 조치원읍 새내10길 27, (원리)",127.2997312,36.60058474
L,부동산,L01,부동산중개,L01A01,부동산중개,L68221,부동산 자문 및 중개업,3611025000,조치원읍,"세종특별자치시 조치원읍 충현로 141, (침산리)",127.294843,36.60099752
Q,음식,Q01,한식,Q01A01,한식/백반/한정식,I56111,한식 음식점업,3611025000,조치원읍,"세종특별자치시 조치원읍 장안길 16, (정리)",127.3000404,36.59975745
Q,음식,Q08,제과제빵떡케익,Q08A05,찐빵전문,I56194,분식 및 김밥 전문점,3611025000,조치원읍,"세종특별자치시 조치원읍 장안길 14, (정리)",127.3000284,36.59985651
D,소매,D18,사진/광학/정밀기기소매,D18A04,안경원,G47822,안경 소매업,3611025000,조치원읍,"세종특별자치시 조치원읍 허만석로 60, (번암리)",127.2977252,36.58636991
F,생활서비스,F03,개인/가정용품수리,F03A08,옷수선,S95391,"신발, 의복 및 기타 가정용 직물제품 수리업",3611025000,조치원읍,"세종특별자치시 조치원읍 새내5길 8, (정리)",127.2982317,36.5983139
L,부동산,L03,분양,L03A04,건물분양-종합,,,3611038000,전동면,"세종특별자치시 전동면 덕용골길 49, (심중리)",127.2827159,36.66011605
Q,음식,Q01,한식,Q01A01,한식/백반/한정식,I56111,한식 음식점업,3611025000,조치원읍,"세종특별자치시 조치원읍 충현로 61-1, (죽림리)",127.2973172,36.59438826
R,학문/교육,R05,학원-음악미술무용,R05A01,서예/서화/미술,P85620,예술 학원,3611037000,전의면,"세종특별자치시 전의면 운주산로 1167, (동교리)",127.2073393,36.67941041
Q,음식,Q01,한식,Q01A01,한식/백반/한정식,I56111,한식 음식점업,3611025000,조치원읍,"세종특별자치시 조치원읍 새내10길 29, (원리)",127.2998648,36.6006396
L,부동산,L01,부동산중개,L01A01,부동산중개,L68221,부동산 자문 및 중개업,3611034000,금남면,"세종특별자치시 금남면 용포로 95, (용포리)",127.2815299,36.4671145
D,소매,D25,기타판매업,D25A21,안전보호구판매,G47599,그외 기타 분류안된 가정용품 소매업,3611025000,조치원읍,"세종특별자치시 조치원읍 충현로 16-1, (죽림리)",127.2993734,36.59070541
D,소매,D10,건강/미용식품,D10A01,다이어트상품판매,G47216,건강보조식품 소매업,3611025000,조치원읍,"세종특별자치시 조치원읍 새내로 127, (교리)",127.2976171,36.60323086
L,부동산,L01,부동산중개,L01A01,부동산중개,L68221,부동산 자문 및 중개업,3611025000,조치원읍,"세종특별자치시 조치원읍 큰샘길 3, (신흥리)",127.2914943,36.59562449
D,소매,D14,운동/경기용품소매,D14A06,골프용품판매,G47631,운동 및 경기용품 소매업,3611031000,연기면,"세종특별자치시 연기면 세종로 1845, (보통리)",127.2784284,36.55487452
R,학문/교육,R09,학원기타,R09A01,학원(종합),P85501,일반 교과 학원,3611025000,조치원읍,"세종특별자치시 조치원읍 도장말길 45, (죽림리)",127.2955144,36.59107919
F,생활서비스,F02,세탁/가사서비스,F02A01,세탁소/빨래방,S96912,가정용 세탁업,3611025000,조치원읍,"세종특별자치시 조치원읍 충현로 149, (침산리)",127.2946573,36.60175343
Q,음식,Q09,유흥주점,Q09A10,룸살롱/단란주점,I56211,일반유흥 주점업,3611033000,부강면,"세종특별자치시 부강면 부촌길 29, (부강리)",127.367289,36.52892836
N,관광/여가/오락,N08,경마/경륜/성인오락,N08A01,게임룸,R91249,기타 갬블링 및 베팅업,3611034000,금남면,"세종특별자치시 금남면 용포로 94-1, (용포리)",127.2818096,36.46703507
F,생활서비스,F15,주택수리,F15A04,유리창호,F42420,유리 및 창호 공사업,3611031000,연기면,"세종특별자치시 연기면 세종로 1783, (연기리)",127.2754812,36.54989097
D,소매,D05,의복의류,D05A03,여성의류전문점,,,3611052000,도담동,"세종특별자치시 절재로 154, (어진동)",127.2588522,36.50746771
Q,음식,Q09,유흥주점,Q09A01,호프/맥주,I56219,기타 주점업,3611025000,조치원읍,"세종특별자치시 조치원읍 장안길 97-7, (남리)",127.3010318,36.59641078
D,소매,D06,가방/신발/액세서리,D06A01,신발소매,G47420,신발 소매업,3611034000,금남면,"세종특별자치시 금남면 용포로 91-1, (용포리)",127.2814649,36.46690682
Q,음식,Q01,한식,Q01A01,한식/백반/한정식,I56111,한식 음식점업,3611031000,연기면,"세종특별자치시 연기면 연기길 43, (연기리)",127.2788014,36.5459818
N,관광/여가/오락,N02,무도/유흥/가무,N02A01,노래방,R91223,노래연습장 운영업,3611025000,조치원읍,"세종특별자치시 조치원읍 행복8길 5, (침산리)",127.2916506,36.60297926
Q,음식,Q01,한식,Q01A01,한식/백반/한정식,I56111,한식 음식점업,3611031000,연기면,"세종특별자치시 연기면 조뱅이길 32, (수산리)",127.2338338,36.53923969
Q,음식,Q04,분식,Q04A03,떡볶이전문,I56194,분식 및 김밥 전문점,3611025000,조치원읍,"세종특별자치시 조치원읍 대첩로 9, (죽림리)",127.2950605,36.59552848
D,소매,D03,종합소매점,D03A02,수퍼마켓,G47121,슈퍼마켓,3611025000,조치원읍,"세종특별자치시 조치원읍 건강길 13, (원리)",127.2961706,36.60497067
Q,음식,Q04,분식,Q04A02,국수/만두/칼국수,I56194,분식 및 김밥 전문점,3611025000,조치원읍,"세종특별자치시 조치원읍 조치원4길 35, (정리)",127.2990675,36.59981482
D,소매,D01,음/식료품소매,D01A04,닭집,G47212,육류 소매업,3611025000,조치원읍,"세종특별자치시 조치원읍 행복12길 5, (침산리)",127.2932758,36.60371889
N,관광/여가/오락,N01,PC/오락/당구/볼링등,N01A01,인터넷PC방,R91222,컴퓨터 게임방 운영업,3611025000,조치원읍,"세종특별자치시 조치원읍 새내11길 6, (교리)",127.2977151,36.60228517
D,소매,D25,기타판매업,D25A21,안전보호구판매,G47599,그외 기타 분류안된 가정용품 소매업,3611036000,연서면,"세종특별자치시 연서면 월하1길 5-1, (월하리)",127.2910054,36.57575894
N,관광/여가/오락,N01,PC/오락/당구/볼링등,N01A05,탁구장,R91139,그외 기타 스포츠시설 운영업,3611025000,조치원읍,"세종특별자치시 조치원읍 새내로 97, (원리)",127.2980452,36.60039459
F,생활서비스,F03,개인/가정용품수리,F03A08,옷수선,S95391,"신발, 의복 및 기타 가정용 직물제품 수리업",3611025000,조치원읍,"세종특별자치시 조치원읍 조치원4길 26, (정리)",127.2988067,36.60022784
L,부동산,L01,부동산중개,L01A01,부동산중개,L68221,부동산 자문 및 중개업,3611036000,연서면,"세종특별자치시 연서면 세종로 2136, (월하리)",127.2927196,36.57770673
Q,음식,Q05,닭/오리요리,Q05A08,후라이드/양념치킨,I56193,치킨 전문점,3611025000,조치원읍,"세종특별자치시 조치원읍 충현로 98, (침산리)",127.2958048,36.59724517
Q,음식,Q03,일식/수산물,Q03A01,횟집,I56111,한식 음식점업,3611025000,조치원읍,"세종특별자치시 조치원읍 충현로 58-14, (죽림리)",127.2980396,36.59484312
Q,음식,Q05,닭/오리요리,Q05A09,오리고기전문,I56111,한식 음식점업,3611025000,조치원읍,"세종특별자치시 조치원읍 조치원4길 144-5, (남리)",127.2998954,36.59478193
Q,음식,Q01,한식,Q01A01,한식/백반/한정식,I56111,한식 음식점업,3611025000,조치원읍,"세종특별자치시 조치원읍 보람길 7, (원리)",127.2966011,36.60063841
D,소매,D01,음/식료품소매,D01A13,청과물소매,G47214,과실 및 채소 소매업,3611036000,연서면,"세종특별자치시 연서면 용연로 485-5, (와촌리)",127.2296678,36.55727311
D,소매,D18,사진/광학/정밀기기소매,D18A04,안경원,G47822,안경 소매업,3611025000,조치원읍,"세종특별자치시 조치원읍 조치원5길 2, (원리)",127.2993644,36.60159194
Q,음식,Q01,한식,Q01A11,두부요리전문,I56111,한식 음식점업,3611025000,조치원읍,"세종특별자치시 조치원읍 새내10길 19, (원리)",127.2992388,36.60064494
D,소매,D10,건강/미용식품,D10A05,인삼제품판매,G47216,건강보조식품 소매업,3611025000,조치원읍,"세종특별자치시 조치원읍 조치원4길 26, (정리)",127.2988067,36.60022784
D,소매,D05,의복의류,D05A09,남성의류전문점,,,3611025000,조치원읍,"세종특별자치시 조치원읍 장안로 32, (정리)",127.3013666,36.59895415
D,소매,D21,철물/난방/건설자재소매,D21A06,철물/건설자재소매,G47511,철물 및 난방용구 소매업,3611036000,연서면,"세종특별자치시 연서면 당산로 324, (봉암리)",127.2810663,36.5607213
Q,음식,Q01,한식,Q01A01,한식/백반/한정식,I56111,한식 음식점업,3611031000,연기면,"세종특별자치시 연기면 당산로 233, (보통리)",127.2770621,36.55405515
D,소매,D01,음/식료품소매,D01A13,청과물소매,G47214,과실 및 채소 소매업,3611032000,연동면,"세종특별자치시 연동면 내판로 54, (내판리)",127.325474,36.55153606
F,생활서비스,F05,인력/고용/용역알선,F05A02,인력공급/고용알선,,,3611025000,조치원읍,"세종특별자치시 조치원읍 충현로 103, (신흥리)",127.2953423,36.59772008
O,숙박,O02,모텔/여관/여인숙,O02A01,모텔/여관/여인숙,I55112,여관업,3611025000,조치원읍,"세종특별자치시 조치원읍 새내9길 11, (정리)",127.297746,36.60010444
D,소매,D05,의복의류,D05A16,교복판매,G47416,셔츠 및 기타 의복 소매업,3611025000,조치원읍,"세종특별자치시 조치원읍 새내로 121-1, (교리)",127.2976767,36.60281666
D,소매,D16,화장품소매,D16A01,화장품판매점,G47813,화장품 및 방향제 소매업,3611025000,조치원읍,"세종특별자치시 조치원읍 허만석로 60, (번암리)",127.2977252,36.58636991
N,관광/여가/오락,N02,무도/유흥/가무,N02A01,노래방,R91223,노래연습장 운영업,3611034000,금남면,"세종특별자치시 금남면 용포로 79, (용포리)",127.2811841,36.46589576
Q,음식,Q01,한식,Q01A01,한식/백반/한정식,I56111,한식 음식점업,3611025000,조치원읍,"세종특별자치시 조치원읍 조치원8길 29, (정리)",127.3008624,36.60033004
N,관광/여가/오락,N02,무도/유흥/가무,N02A05,한국식유흥주점,I56211,일반유흥 주점업,3611025000,조치원읍,"세종특별자치시 조치원읍 새내8길 17, (정리)",127.2992702,36.59964478
Q,음식,Q04,분식,Q04A01,라면김밥분식,I56194,분식 및 김밥 전문점,3611025000,조치원읍,"세종특별자치시 조치원읍 장안길 14, (정리)",127.3000284,36.59985651
D,소매,D25,기타판매업,D25A02,복권판매,R91241,복권발행 및 판매업,3611025000,조치원읍,"세종특별자치시 조치원읍 새내로 103, (원리)",127.2979053,36.60102461
Q,음식,Q05,닭/오리요리,Q05A02,닭갈비전문,I56111,한식 음식점업,3611025000,조치원읍,"세종특별자치시 조치원읍 신흥샛터길 46, (신흥리)",127.2954039,36.59708959
L,부동산,L01,부동산중개,L01A01,부동산중개,L68221,부동산 자문 및 중개업,3611025000,조치원읍,"세종특별자치시 조치원읍 새내로 150, (교리)",127.2975883,36.6051773
Q,음식,Q01,한식,Q01A02,갈비/삼겹살,I56111,한식 음식점업,3611025000,조치원읍,"세종특별자치시 조치원읍 번영1길 11, (남리)",127.2993794,36.59622985
D,소매,D25,기타판매업,D25A21,안전보호구판매,G47599,그외 기타 분류안된 가정용품 소매업,3611034000,금남면,"세종특별자치시 금남면 성덕영곡길 26, (용포리)",127.2765589,36.46052354
F,생활서비스,F03,개인/가정용품수리,F03A08,옷수선,S95391,"신발, 의복 및 기타 가정용 직물제품 수리업",3611025000,조치원읍,"세종특별자치시 조치원읍 새내로 152, (교리)",127.2975863,36.60539358
D,소매,D22,페인트/유리제품소매,D22A01,페인트/유리제품소매,G47519,"페인트, 유리 및 기타 건설자재 소매업",3611025000,조치원읍,"세종특별자치시 조치원읍 새내8길 100, (명리)",127.303862,36.59986094
Q,음식,Q04,분식,Q04A02,국수/만두/칼국수,I56194,분식 및 김밥 전문점,3611025000,조치원읍,"세종특별자치시 조치원읍 허만석로 89, (죽림리)",127.2989634,36.58908082
Q,음식,Q09,유흥주점,Q09A10,룸살롱/단란주점,I56211,일반유흥 주점업,3611025000,조치원읍,"세종특별자치시 조치원읍 새내8길 17, (정리)",127.2992702,36.59964478
N,관광/여가/오락,N01,PC/오락/당구/볼링등,N01A03,당구장,R91135,당구장 운영업,3611025000,조치원읍,"세종특별자치시 조치원읍 행복2길 21, (침산리)",127.292391,36.6039119
Q,음식,Q01,한식,Q01A01,한식/백반/한정식,I56111,한식 음식점업,3611025000,조치원읍,"세종특별자치시 조치원읍 큰샘길 3, (신흥리)",127.2914943,36.59562449
Q,음식,Q04,분식,Q04A01,라면김밥분식,I56194,분식 및 김밥 전문점,3611025000,조치원읍,"세종특별자치시 조치원읍 으뜸길 228, (원리)",127.2970495,36.6017225
Q,음식,Q05,닭/오리요리,Q05A06,옻닭전문,I56111,한식 음식점업,3611034000,금남면,"세종특별자치시 금남면 용포로 97-6, (용포리)",127.2813252,36.46753684
D,소매,D05,의복의류,D05A01,일반의류,G47416,셔츠 및 기타 의복 소매업,3611034000,금남면,"세종특별자치시 금남면 용포로 98, (용포리)",127.2818848,36.46735095
D,소매,D25,기타판매업,D25A21,안전보호구판매,G47599,그외 기타 분류안된 가정용품 소매업,3611034000,금남면,"세종특별자치시 금남면 성덕영곡길 21, (발산리)",127.2771193,36.46024756
F,생활서비스,F01,이/미용/건강,F01A03,비만/피부관리,,,3611025000,조치원읍,"세종특별자치시 조치원읍 도장말길 30, (죽림리, 조치원신동아파밀리에)",127.2974675,36.59014445
N,관광/여가/오락,N04,스포츠/운동,N04A02,실내사격장,R91139,그외 기타 스포츠시설 운영업,3611025000,조치원읍,"세종특별자치시 조치원읍 행복4길 23, (침산리)",127.2922615,36.6046321
D,소매,D25,기타판매업,D25A17,농자재판매,G47859,그외 기타 분류안된 상품 전문 소매업,3611037000,전의면,"세종특별자치시 전의면 운주산로 1177-2, (동교리)",127.2063272,36.6788179
F,생활서비스,F01,이/미용/건강,F01A03,비만/피부관리,,,3611051000,한솔동,"세종특별자치시 누리로 54, (한솔동, 첫마을푸르지오5단지)",127.251953,36.47613428
Q,음식,Q05,닭/오리요리,Q05A08,후라이드/양념치킨,I56193,치킨 전문점,3611025000,조치원읍,"세종특별자치시 조치원읍 새내6길 45, (정리)",127.3012792,36.59872833
Q,음식,Q06,양식,Q06A01,정통양식/경양식,I56114,서양식 음식점업,3611025000,조치원읍,"세종특별자치시 조치원읍 새내6길 41, (정리)",127.3008327,36.59866263
N,관광/여가/오락,N01,PC/오락/당구/볼링등,N01A01,인터넷PC방,R91222,컴퓨터 게임방 운영업,3611025000,조치원읍,"세종특별자치시 조치원읍 새내로 81, (정리)",127.2983706,36.59901765
Q,음식,Q01,한식,Q01A05,해장국/감자탕,I56111,한식 음식점업,3611025000,조치원읍,"세종특별자치시 조치원읍 충현로 197, (침산리)",127.2939026,36.60607475
L,부동산,L01,부동산중개,L01A01,부동산중개,L68221,부동산 자문 및 중개업,3611025000,조치원읍,"세종특별자치시 조치원읍 행복길 10-1, (침산리)",127.2909789,36.60309242
Q,음식,Q04,분식,Q04A02,국수/만두/칼국수,I56194,분식 및 김밥 전문점,3611025000,조치원읍,"세종특별자치시 조치원읍 조치원6길 13-2, (원리)",127.2996844,36.60080977
Q,음식,Q01,한식,Q01A01,한식/백반/한정식,I56111,한식 음식점업,3611035000,장군면,"세종특별자치시 장군면 대학길 214-3, (금암리)",127.2120607,36.45723128
O,숙박,O02,모텔/여관/여인숙,O02A01,모텔/여관/여인숙,I55112,여관업,3611035000,장군면,"세종특별자치시 장군면 장척로 399, (도계리)",127.2049935,36.49706338
Q,음식,Q02,중식,Q02A00,중국음식/중국집,I56112,중식 음식점업,3611025000,조치원읍,"세종특별자치시 조치원읍 보람길 5, (원리)",127.2967017,36.600639
D,소매,D05,의복의류,D05A01,일반의류,G47416,셔츠 및 기타 의복 소매업,3611025000,조치원읍,"세종특별자치시 조치원읍 새내10길 31, (원리)",127.3000538,36.60074886
Q,음식,Q01,한식,Q01A16,보리밥전문,I56111,한식 음식점업,3611036000,연서면,"세종특별자치시 연서면 당산로 283, (봉암리)",127.2781267,36.55848656
N,관광/여가/오락,N02,무도/유흥/가무,N02A05,한국식유흥주점,I56211,일반유흥 주점업,3611025000,조치원읍,"세종특별자치시 조치원읍 새내10길 29, (원리)",127.2998648,36.6006396
Q,음식,Q10,별식/퓨전요리,Q10A01,죽전문점,I56111,한식 음식점업,3611025000,조치원읍,"세종특별자치시 조치원읍 새내10길 15, (원리)",127.2991501,36.60057232
Q,음식,Q04,분식,Q04A02,국수/만두/칼국수,I56194,분식 및 김밥 전문점,3611034000,금남면,"세종특별자치시 금남면 대평시장1길 16, (용포리)",127.2821465,36.46680278
Q,음식,Q07,패스트푸드,Q07A01,피자전문,I56192,"피자, 햄버거, 샌드위치 및 유사 음식점업",3611025000,조치원읍,"세종특별자치시 조치원읍 조치원10길 32, (상리)",127.303684,36.60101345
R,학문/교육,R01,학원-보습교습입시,R01A01,학원-입시,P85501,일반 교과 학원,3611025000,조치원읍,"세종특별자치시 조치원읍 대첩로 15, (신흥리)",127.2943357,36.59534395
F,생활서비스,F01,이/미용/건강,F01A04,남성미용실,S96111,이용업,3611034000,금남면,"세종특별자치시 금남면 용포2길 72, (용포리)",127.2800689,36.46341968
L,부동산,L01,부동산중개,L01A01,부동산중개,L68221,부동산 자문 및 중개업,3611025000,조치원읍,"세종특별자치시 조치원읍 충현로 30, (죽림리)",127.2989388,36.59180233
D,소매,D06,가방/신발/액세서리,D06A02,구두제화/캐주얼화,G47420,신발 소매업,3611025000,조치원읍,"세종특별자치시 조치원읍 장안길 7, (정리)",127.3003819,36.6003182
N,관광/여가/오락,N01,PC/오락/당구/볼링등,N01A03,당구장,R91135,당구장 운영업,3611025000,조치원읍,"세종특별자치시 조치원읍 죽림로 37, (죽림리)",127.295639,36.59212533
D,소매,D15,가구소매,D15A01,일반가구소매,G47520,가구 소매업,3611036000,연서면,"세종특별자치시 연서면 세종로 1899, (봉암리)",127.2813689,36.55940735
D,소매,D05,의복의류,D05A07,셔츠/내의/속옷,,,3611025000,조치원읍,"세종특별자치시 조치원읍 허만석로 60, (번암리)",127.2977252,36.58636991
F,생활서비스,F18,장례/묘지,F18A02,묘지관리-종합,S96922,"화장, 묘지분양 및 관리업",3611031000,연기면,"세종특별자치시 연기면 교촌3길 13, (연기리)",127.2812841,36.54323908
D,소매,D03,종합소매점,D03A02,수퍼마켓,G47121,슈퍼마켓,3611025000,조치원읍,"세종특별자치시 조치원읍 토골고개길 51, (신안리)",127.2863827,36.62396392
Q,음식,Q02,중식,Q02A01,탕수육전문점,I56112,중식 음식점업,3611025000,조치원읍,"세종특별자치시 조치원읍 새내15길 8, (교리)",127.2968616,36.60395639
L,부동산,L01,부동산중개,L01A01,부동산중개,L68221,부동산 자문 및 중개업,3611025000,조치원읍,"세종특별자치시 조치원읍 충현로 202-2, (침산리)",127.2942236,36.60641911
D,소매,D25,기타판매업,D25A02,복권판매,R91241,복권발행 및 판매업,3611025000,조치원읍,"세종특별자치시 조치원읍 충현로 31, (죽림리)",127.2983562,36.59197013
Q,음식,Q09,유흥주점,Q09A03,꼬치구이전문점,I56219,기타 주점업,3611025000,조치원읍,"세종특별자치시 조치원읍 행복7길 3, (침산리)",127.2902089,36.60296167
Q,음식,Q09,유흥주점,Q09A07,기타일반유흥주점,I56211,일반유흥 주점업,3611025000,조치원읍,"세종특별자치시 조치원읍 새내8길 8, (정리)",127.2987937,36.59919137
F,생활서비스,F05,인력/고용/용역알선,F05A02,인력공급/고용알선,,,3611025000,조치원읍,"세종특별자치시 조치원읍 새내8길 18, (정리)",127.2994301,36.59926721
Q,음식,Q07,패스트푸드,Q07A01,피자전문,I56192,"피자, 햄버거, 샌드위치 및 유사 음식점업",3611025000,조치원읍,"세종특별자치시 조치원읍 충현로 3, (죽림리)",127.2989474,36.58962145
Q,음식,Q04,분식,Q04A01,라면김밥분식,I56194,분식 및 김밥 전문점,3611025000,조치원읍,"세종특별자치시 조치원읍 으뜸길 226, (원리)",127.2970613,36.60165949
Q,음식,Q09,유흥주점,Q09A01,호프/맥주,I56219,기타 주점업,3611025000,조치원읍,"세종특별자치시 조치원읍 충현로 61-1, (죽림리)",127.2973172,36.59438826
D,소매,D15,가구소매,D15A02,가구판매-사무용가구,G47520,가구 소매업,3611025000,조치원읍,"세종특별자치시 조치원읍 새내4길 3, (남리)",127.2992458,36.59740063
Q,음식,Q01,한식,Q01A03,곱창/양구이전문,I56111,한식 음식점업,3611025000,조치원읍,"세종특별자치시 조치원읍 충현로 69, (죽림리)",127.2967199,36.59494348
F,생활서비스,F14,자동차/이륜차,F14A02,자전거판매/수리,,,3611025000,조치원읍,"세종특별자치시 조치원읍 새내6길 9, (정리)",127.2989561,36.59854346
N,관광/여가/오락,N01,PC/오락/당구/볼링등,N01A02,비디오감상실,J59142,비디오물 감상실 운영업,3611025000,조치원읍,"세종특별자치시 조치원읍 으뜸길 232, (원리)",127.2968695,36.60185662
Q,음식,Q01,한식,Q01A01,한식/백반/한정식,I56111,한식 음식점업,3611025000,조치원읍,"세종특별자치시 조치원읍 새내8길 22-13, (정리, 풍산아파트)",127.3003532,36.59854266
D,소매,D05,의복의류,D05A09,남성의류전문점,,,3611025000,조치원읍,"세종특별자치시 조치원읍 새내로 60-1, (남리)",127.2989794,36.5972008
N,관광/여가/오락,N05,요가/단전/마사지,N05A06,스포츠마사지,S96122,마사지업,3611025000,조치원읍,"세종특별자치시 조치원읍 조치원로 36, (원리)",127.3007183,36.60142866
F,생활서비스,F12,광고/인쇄,F12A05,광고물제작-종합,C33910,간판 및 광고물 제조업,3611025000,조치원읍,"세종특별자치시 조치원읍 새내2길 16, (남리)",127.2997897,36.59658373
Q,음식,Q01,한식,Q01A01,한식/백반/한정식,I56111,한식 음식점업,3611036000,연서면,"세종특별자치시 연서면 기와말1길 20, (와촌리)",127.2498407,36.55859133
D,소매,D21,철물/난방/건설자재소매,D21A07,열쇠판매/수리,G47511,철물 및 난방용구 소매업,3611036000,연서면,"세종특별자치시 연서면 당산로 318-1, (봉암리)",127.2806328,36.56048437
Q,음식,Q02,중식,Q02A00,중국음식/중국집,I56112,중식 음식점업,3611025000,조치원읍,"세종특별자치시 조치원읍 행복5길 32, (침산리)",127.2932537,36.60491736
D,소매,D10,건강/미용식품,D10A07,건강원,G47216,건강보조식품 소매업,3611025000,조치원읍,"세종특별자치시 조치원읍 터미널안길 80, (상리)",127.3021948,36.60131115
Q,음식,Q01,한식,Q01A01,한식/백반/한정식,I56111,한식 음식점업,3611025000,조치원읍,"세종특별자치시 조치원읍 장안1길 32, (명리)",127.3018828,36.59995751
Q,음식,Q09,유흥주점,Q09A01,호프/맥주,I56219,기타 주점업,3611051000,한솔동,"세종특별자치시 노을3로 104, (한솔동)",127.2537315,36.48034511
Q,음식,Q01,한식,Q01A01,한식/백반/한정식,I56111,한식 음식점업,3611025000,조치원읍,"세종특별자치시 조치원읍 조치원6길 13-2, (원리)",127.2996844,36.60080977
Q,음식,Q09,유흥주점,Q09A01,호프/맥주,I56219,기타 주점업,3611025000,조치원읍,"세종특별자치시 조치원읍 도장말길 52, (죽림리)",127.2974765,36.59161347
D,소매,D15,가구소매,D15A01,일반가구소매,G47520,가구 소매업,3611025000,조치원읍,"세종특별자치시 조치원읍 충현로 30, (죽림리)",127.2989388,36.59180233
D,소매,D06,가방/신발/액세서리,D06A10,가방/가죽제품소매,G47430,가방 및 기타 가죽제품 소매업,3611025000,조치원읍,"세종특별자치시 조치원읍 장안로 3, (상리)",127.3015583,36.60124433
N,관광/여가/오락,N01,PC/오락/당구/볼링등,N01A01,인터넷PC방,R91222,컴퓨터 게임방 운영업,3611025000,조치원읍,"세종특별자치시 조치원읍 행복8길 5, (침산리)",127.2916506,36.60297926
Q,음식,Q01,한식,Q01A02,갈비/삼겹살,I56111,한식 음식점업,3611025000,조치원읍,"세종특별자치시 조치원읍 대첩로 36, (신흥리)",127.2920638,36.59568194
Q,음식,Q01,한식,Q01A02,갈비/삼겹살,I56111,한식 음식점업,3611025000,조치원읍,"세종특별자치시 조치원읍 새내6길 36, (남리)",127.3005889,36.59842688
F,생활서비스,F17,예식/의례/관혼상제,F17A04,폐백전문,I56131,출장 음식 서비스업,3611025000,조치원읍,"세종특별자치시 조치원읍 충현로 69, (죽림리)",127.2967199,36.59494348
Q,음식,Q01,한식,Q01A01,한식/백반/한정식,I56111,한식 음식점업,3611025000,조치원읍,"세종특별자치시 조치원읍 죽림로 56, (죽림리)",127.2978081,36.59202097
D,소매,D25,기타판매업,D25A21,안전보호구판매,G47599,그외 기타 분류안된 가정용품 소매업,3611025000,조치원읍,"세종특별자치시 조치원읍 허만석로 41, (번암리)",127.295687,36.58560988
Q,음식,Q01,한식,Q01A01,한식/백반/한정식,I56111,한식 음식점업,3611025000,조치원읍,"세종특별자치시 조치원읍 새내8길 71, (명리)",127.302398,36.59984337
D,소매,D10,건강/미용식품,D10A04,건강식품판매,G47216,건강보조식품 소매업,3611025000,조치원읍,"세종특별자치시 조치원읍 장안로 7, (상리)",127.3014149,36.60103622
R,학문/교육,R09,학원기타,R09A11,학원-기타,P85699,그외 기타 분류안된 교육기관,3611025000,조치원읍,"세종특별자치시 조치원읍 대첩로 19-1, (신흥리)",127.2939446,36.59533262
D,소매,D05,의복의류,D05A05,아동복판매,G47416,셔츠 및 기타 의복 소매업,3611025000,조치원읍,"세종특별자치시 조치원읍 허만석로 60, (번암리)",127.2977252,36.58636991
D,소매,D21,철물/난방/건설자재소매,D21A02,보일러/냉난방용품,G47511,철물 및 난방용구 소매업,3611025000,조치원읍,"세종특별자치시 조치원읍 대동학교길 31, (신흥리)",127.2954642,36.5966033
R,학문/교육,R05,학원-음악미술무용,R05A02,피아노/바이올린/기타,P85620,예술 학원,3611025000,조치원읍,"세종특별자치시 조치원읍 신흥샛터길 43, (신흥리)",127.2952349,36.59723279
R,학문/교육,R09,학원기타,R09A01,학원(종합),P85501,일반 교과 학원,3611025000,조치원읍,"세종특별자치시 조치원읍 도장말길 48, (죽림리)",127.2967872,36.59121288
Q,음식,Q09,유흥주점,Q09A10,룸살롱/단란주점,I56211,일반유흥 주점업,3611025000,조치원읍,"세종특별자치시 조치원읍 새내로 109-1, (원리)",127.2977875,36.60169081
Q,음식,Q03,일식/수산물,Q03A07,민물장어전문,I56111,한식 음식점업,3611031000,연기면,"세종특별자치시 연기면 당산로 214, (보통리)",127.2784186,36.55232403
Q,음식,Q03,일식/수산물,Q03A04,참치전문점,I56113,일식 음식점업,3611051000,한솔동,"세종특별자치시 노을3로 25, (한솔동)",127.259329,36.48084862
Q,음식,Q01,한식,Q01A13,파전전문,I56111,한식 음식점업,3611025000,조치원읍,"세종특별자치시 조치원읍 조치원6길 27, (정리)",127.2997906,36.60019757
F,생활서비스,F01,이/미용/건강,F01A01,여성미용실,S96112,두발미용업,3611034000,금남면,세종특별자치시 세종특별자치시 금남면 용포로 118,127.2811001,36.46895041
Q,음식,Q01,한식,Q01A03,곱창/양구이전문,I56111,한식 음식점업,3611025000,조치원읍,"세종특별자치시 조치원읍 세종로 2645, (신안리)",127.2902684,36.62208559
D,소매,D14,운동/경기용품소매,D14A01,운동/경기용품,G47631,운동 및 경기용품 소매업,3611025000,조치원읍,"세종특별자치시 조치원읍 새내로 133, (교리)",127.2973329,36.60375189
Q,음식,Q01,한식,Q01A01,한식/백반/한정식,I56111,한식 음식점업,3611025000,조치원읍,"세종특별자치시 조치원읍 새내8길 49, (정리)",127.3011024,36.59973665
Q,음식,Q01,한식,Q01A01,한식/백반/한정식,I56111,한식 음식점업,3611025000,조치원읍,"세종특별자치시 조치원읍 새내로 69, (남리)",127.2985023,36.59804513
Q,음식,Q12,커피점/카페,Q12A01,커피전문점/카페/다방,I56220,비알콜 음료점업,3611037000,전의면,"세종특별자치시 전의면 장터길 14, (읍내리)",127.2052777,36.67860363
Q,음식,Q10,별식/퓨전요리,Q10A05,순대전문점,I56111,한식 음식점업,3611025000,조치원읍,"세종특별자치시 조치원읍 내창2길 9-2, (서창리)",127.2897265,36.60680695
D,소매,D01,음/식료품소매,D01A01,식료품점,G47219,기타 식료품 소매업,3611037000,전의면,"세종특별자치시 전의면 구름들이길 32, (관정리)",127.2071826,36.71102301
R,학문/교육,R09,학원기타,R09A01,학원(종합),P85501,일반 교과 학원,3611025000,조치원읍,"세종특별자치시 조치원읍 충현로 191, (침산리)",127.2939532,36.60542618
F,생활서비스,F16,주유소/충전소,F16A01,주유소,G47711,차량용 주유소 운영업,3611025000,조치원읍,"세종특별자치시 조치원읍 세종로 2511, (서창리)",127.2910008,36.61169005
F,생활서비스,F02,세탁/가사서비스,F02A01,세탁소/빨래방,S96912,가정용 세탁업,3611031000,연기면,"세종특별자치시 연기면 당산로 122, (연기리)",127.2770952,36.5445025
Q,음식,Q01,한식,Q01A01,한식/백반/한정식,I56111,한식 음식점업,3611025000,조치원읍,"세종특별자치시 조치원읍 대동학교길 31, (신흥리)",127.2954642,36.5966033
D,소매,D05,의복의류,D05A01,일반의류,G47416,셔츠 및 기타 의복 소매업,3611025000,조치원읍,"세종특별자치시 조치원읍 허만석로 75, (죽림리)",127.2980567,36.58801206
D,소매,D07,가정/주방/인테리어,D07A10,조명기구/전기용품,G47591,전기용품 및 조명장치 소매업,3611025000,조치원읍,"세종특별자치시 조치원읍 행복4길 29, (침산리)",127.2930208,36.60471771
D,소매,D01,음/식료품소매,D01A01,식료품점,G47219,기타 식료품 소매업,3611037000,전의면,"세종특별자치시 전의면 운주산로 1217, (읍내리)",127.2016101,36.67948028
F,생활서비스,F01,이/미용/건강,F01A04,남성미용실,S96111,이용업,3611034000,금남면,"세종특별자치시 금남면 용포로 97-6, (용포리)",127.2813252,36.46753684
F,생활서비스,F01,이/미용/건강,F01A01,여성미용실,S96112,두발미용업,3611025000,조치원읍,"세종특별자치시 조치원읍 도원1로 16, (신흥리, 신흥대우푸르지오)",127.289886,36.59184787
D,소매,D03,종합소매점,D03B04,시장/종합상가,G47129,기타 음·식료품 위주 종합 소매업,3611025000,조치원읍,"세종특별자치시 조치원읍 새내로 70, (남리)",127.2988588,36.59817339
D,소매,D05,의복의류,D05A13,청바지판매,G47416,셔츠 및 기타 의복 소매업,3611025000,조치원읍,"세종특별자치시 조치원읍 조치원로 38, (원리)",127.3009973,36.60147536
Q,음식,Q01,한식,Q01A05,해장국/감자탕,I56111,한식 음식점업,3611025000,조치원읍,"세종특별자치시 조치원읍 행복2길 11, (침산리)",127.2911068,36.6037781
D,소매,D01,음/식료품소매,D01A13,청과물소매,G47214,과실 및 채소 소매업,3611025000,조치원읍,"세종특별자치시 조치원읍 새내10길 12, (정리)",127.299086,36.60023849
